{
  "city": "Pune",
  "timestamp": "2026-03-14T11:10:56.943Z",
  "counts": {
    "hospitals": 487,
    "schools": 251,
    "trafficNodes": 455,
    "pharmacies": 131,
    "police": 51,
    "buildings": 4749
  },
  "data": {
    "hospitals": [
      {
        "id": 672120487,
        "lat": 18.5027163,
        "lon": 73.87712,
        "name": "Sardar Patel Cantonment General Hospital",
        "type": "hospital"
      },
      {
        "id": 674697804,
        "lat": 18.569025,
        "lon": 73.8486994,
        "name": "Dr. Babasaheb Ambedkar Cantonment General Hospital",
        "type": "hospital"
      },
      {
        "id": 678341812,
        "lat": 18.5005828,
        "lon": 73.8894328,
        "name": "Command Hospital Southern Command",
        "type": "hospital"
      },
      {
        "id": 772571829,
        "lat": 18.5251434,
        "lon": 73.8695664,
        "name": "Sassoon Hospital",
        "type": "hospital"
      },
      {
        "id": 865849506,
        "lat": 18.5649263,
        "lon": 73.8022626,
        "name": "Sanjeevani Vitalife Medipoint Hospital",
        "type": "hospital"
      },
      {
        "id": 865854267,
        "lat": 18.5597445,
        "lon": 73.8062674,
        "name": "LifeLine Hospital",
        "type": "hospital"
      },
      {
        "id": 871515219,
        "lat": 18.5547291,
        "lon": 73.8082012,
        "name": "Dr. Chowdhary",
        "type": "hospital"
      },
      {
        "id": 871515522,
        "lat": 18.5554816,
        "lon": 73.8088556,
        "name": "Dr. Bonagiri",
        "type": "hospital"
      },
      {
        "id": 988738259,
        "lat": 18.5883392,
        "lon": 73.8015444,
        "name": "Shree Sakthi Hospital",
        "type": "hospital"
      },
      {
        "id": 1054641704,
        "lat": 18.5009733,
        "lon": 73.8461063,
        "name": "Karva Hospital",
        "type": "hospital"
      },
      {
        "id": 1065055883,
        "lat": 18.5433023,
        "lon": 73.7838607,
        "name": "Jeevan Deep Medicare Centre",
        "type": "hospital"
      },
      {
        "id": 1109153493,
        "lat": 18.5074625,
        "lon": 73.8057842,
        "name": "Sahyadri Hospital",
        "type": "hospital"
      },
      {
        "id": 1109153494,
        "lat": 18.5092055,
        "lon": 73.8128199,
        "name": "Krishna Hospital, Pune",
        "type": "hospital"
      },
      {
        "id": 1305056480,
        "lat": 18.4789234,
        "lon": 73.8241232,
        "name": "Madhukar General Hospital",
        "type": "hospital"
      },
      {
        "id": 1309316787,
        "lat": 18.4745644,
        "lon": 73.8140764,
        "name": "Dr. Naik Clinic",
        "type": "hospital"
      },
      {
        "id": 1743974394,
        "lat": 18.5626652,
        "lon": 73.8325327,
        "name": "Shewale Hospital",
        "type": "hospital"
      },
      {
        "id": 1762218902,
        "lat": 18.462396,
        "lon": 73.8150518,
        "name": "Trimurti Hospital",
        "type": "hospital"
      },
      {
        "id": 2289294093,
        "lat": 18.521259,
        "lon": 73.8556767,
        "name": "Surya Sahyadri Hospital",
        "type": "hospital"
      },
      {
        "id": 2868930216,
        "lat": 18.5045156,
        "lon": 73.9008129,
        "name": "Fatima Convent Sahyadri Clinic",
        "type": "hospital"
      },
      {
        "id": 2921897064,
        "lat": 18.519051,
        "lon": 73.8398724,
        "name": "Gupte Hospital Of Accurate Diagnostics Pvt Ltd",
        "type": "hospital"
      },
      {
        "id": 2973466889,
        "lat": 18.5625409,
        "lon": 73.8106962,
        "name": "AIMS Hospital",
        "type": "hospital"
      },
      {
        "id": 3238255107,
        "lat": 18.5102879,
        "lon": 73.8594694,
        "name": "Naik Hospital, Pune",
        "type": "hospital"
      },
      {
        "id": 3583527016,
        "lat": 18.4707709,
        "lon": 73.8886878,
        "name": "Satyanand Hospital",
        "type": "hospital"
      },
      {
        "id": 3696693817,
        "lat": 18.511463,
        "lon": 73.8625468,
        "name": "Bora Hospital",
        "type": "hospital"
      },
      {
        "id": 3719797432,
        "lat": 18.4791887,
        "lon": 73.8247015,
        "name": "Patil Hospital",
        "type": "hospital"
      },
      {
        "id": 4154605789,
        "lat": 18.5029092,
        "lon": 73.9277341,
        "name": "Sahyadri Hospital",
        "type": "hospital"
      },
      {
        "id": 4666486136,
        "lat": 18.5098623,
        "lon": 73.9286042,
        "name": "NON",
        "type": "hospital"
      },
      {
        "id": 4846864321,
        "lat": 18.4831808,
        "lon": 73.8273409,
        "name": "Unnamed",
        "type": "hospital"
      },
      {
        "id": 5578793582,
        "lat": 18.5884835,
        "lon": 73.7802163,
        "name": "Apple Hospital",
        "type": "hospital"
      },
      {
        "id": 5695637393,
        "lat": 18.4598178,
        "lon": 73.7859551,
        "name": "Metro Chemist",
        "type": "hospital"
      },
      {
        "id": 5695637395,
        "lat": 18.4602735,
        "lon": 73.7856466,
        "name": "Damle Pediatric & general practice",
        "type": "hospital"
      },
      {
        "id": 5832438811,
        "lat": 18.5181296,
        "lon": 73.8344155,
        "name": "Golwilkar Metropolis Heath Service (India) Pvt Ltd",
        "type": "hospital"
      },
      {
        "id": 5832579347,
        "lat": 18.5143979,
        "lon": 73.8460515,
        "name": "Paranjape Hospital",
        "type": "hospital"
      },
      {
        "id": 6113604708,
        "lat": 18.5719235,
        "lon": 73.7811374,
        "name": "Ashakiran Hospital",
        "type": "hospital"
      },
      {
        "id": 6262931930,
        "lat": 18.5012035,
        "lon": 73.9379293,
        "name": "Pawar Surgical Hospital",
        "type": "hospital"
      },
      {
        "id": 6369340352,
        "lat": 18.4594817,
        "lon": 73.8233106,
        "name": "Pulse Hospital",
        "type": "hospital"
      },
      {
        "id": 6612854042,
        "lat": 18.5329215,
        "lon": 73.8468085,
        "name": "ONP Leela Hospital",
        "type": "hospital"
      },
      {
        "id": 6612986080,
        "lat": 18.5022882,
        "lon": 73.8746894,
        "name": "Meera Hospital",
        "type": "hospital"
      },
      {
        "id": 6618960830,
        "lat": 18.5293628,
        "lon": 73.8284091,
        "name": "Seth Ramdas Shah Memorial Hospital and Research Centre",
        "type": "hospital"
      },
      {
        "id": 6665401667,
        "lat": 18.576745,
        "lon": 73.7757678,
        "name": "Ashwini Hospital",
        "type": "hospital"
      },
      {
        "id": 6901880185,
        "lat": 18.571183,
        "lon": 73.7948972,
        "name": "Unnamed",
        "type": "hospital"
      },
      {
        "id": 7042939577,
        "lat": 18.4565508,
        "lon": 73.8515434,
        "name": "Nityanand Rehabilitation and Residential Mental Heal",
        "type": "hospital"
      },
      {
        "id": 7042939578,
        "lat": 18.5168084,
        "lon": 73.859535,
        "name": "Yashda Hospital",
        "type": "hospital"
      },
      {
        "id": 7042945051,
        "lat": 18.5006535,
        "lon": 73.936556,
        "name": "Mohite Eye Hospital",
        "type": "hospital"
      },
      {
        "id": 7042981399,
        "lat": 18.5327524,
        "lon": 73.8336359,
        "name": "Joglekar Hospital",
        "type": "hospital"
      },
      {
        "id": 7043001890,
        "lat": 18.5628712,
        "lon": 73.9377429,
        "name": "Rakshak Hospital, Pune",
        "type": "hospital"
      },
      {
        "id": 7043003792,
        "lat": 18.5600564,
        "lon": 73.8072065,
        "name": "Parmar Multi Speciality Hospital and Maternity Home",
        "type": "hospital"
      },
      {
        "id": 7043015176,
        "lat": 18.4795175,
        "lon": 73.8043727,
        "name": "Chaitanya Centre For Psychological Help",
        "type": "hospital"
      },
      {
        "id": 7043164499,
        "lat": 18.4872463,
        "lon": 73.8760145,
        "name": "Mothercare Hospital",
        "type": "hospital"
      },
      {
        "id": 7043399086,
        "lat": 18.4781739,
        "lon": 73.862105,
        "name": "Sahyadri Hospital, Bibvewadi",
        "type": "hospital"
      },
      {
        "id": 7043448959,
        "lat": 18.5857676,
        "lon": 73.818174,
        "name": "Siddhi Health Care Center",
        "type": "hospital"
      },
      {
        "id": 7043489278,
        "lat": 18.5017523,
        "lon": 73.8102353,
        "name": "Argade Infertility and Endoscopic Surgery and Icu Center",
        "type": "hospital"
      },
      {
        "id": 7043763362,
        "lat": 18.4910283,
        "lon": 73.8581684,
        "name": "Shree Balaji Eye Hospital",
        "type": "hospital"
      },
      {
        "id": 7044175339,
        "lat": 18.5000189,
        "lon": 73.8503981,
        "name": "Chaitanya Stem Cell Center",
        "type": "hospital"
      },
      {
        "id": 7044292218,
        "lat": 18.5887256,
        "lon": 73.8014048,
        "name": "Shree Shakti Hospital",
        "type": "hospital"
      },
      {
        "id": 7044437265,
        "lat": 18.5034761,
        "lon": 73.9291031,
        "name": "Welfare Medical Foundatios, Mohintara Hospital",
        "type": "hospital"
      },
      {
        "id": 7044577805,
        "lat": 18.4658771,
        "lon": 73.8601231,
        "name": "Pawar Hospital, Pune",
        "type": "hospital"
      },
      {
        "id": 7044819851,
        "lat": 18.5110031,
        "lon": 73.837105,
        "name": "Galaxy Care Laparoscopy Institute Pvt. Ltd.",
        "type": "hospital"
      },
      {
        "id": 7045274083,
        "lat": 18.5284781,
        "lon": 73.8423179,
        "name": "Punarvasu Chikitsalaya",
        "type": "hospital"
      },
      {
        "id": 7045304709,
        "lat": 18.5019965,
        "lon": 73.9348286,
        "name": "Ushakiran General Hospital",
        "type": "hospital"
      },
      {
        "id": 7045516002,
        "lat": 18.4757105,
        "lon": 73.8578707,
        "name": "Sangam Hospital, Pune",
        "type": "hospital"
      },
      {
        "id": 7045518177,
        "lat": 18.5025879,
        "lon": 73.9294803,
        "name": "Zenith Hospital, Pune",
        "type": "hospital"
      },
      {
        "id": 7045823776,
        "lat": 18.5119352,
        "lon": 73.857758,
        "name": "Umarji Hospital",
        "type": "hospital"
      },
      {
        "id": 7045980540,
        "lat": 18.5609006,
        "lon": 73.8132226,
        "name": "Latkar Hospital",
        "type": "hospital"
      },
      {
        "id": 7046347414,
        "lat": 18.5840808,
        "lon": 73.833248,
        "name": "Lunkad Hospital",
        "type": "hospital"
      },
      {
        "id": 7046772780,
        "lat": 18.4948349,
        "lon": 73.8135271,
        "name": "Shashwat Hospital",
        "type": "hospital"
      },
      {
        "id": 7046858056,
        "lat": 18.5623861,
        "lon": 73.933849,
        "name": "Medipoint Hospital",
        "type": "hospital"
      },
      {
        "id": 7046910543,
        "lat": 18.5122188,
        "lon": 73.8762961,
        "name": "Indira Maternity Home",
        "type": "hospital"
      },
      {
        "id": 7047804836,
        "lat": 18.5018572,
        "lon": 73.9322779,
        "name": "Alatkar Hospital",
        "type": "hospital"
      },
      {
        "id": 7047946884,
        "lat": 18.4950117,
        "lon": 73.861886,
        "name": "Ranka Hospital",
        "type": "hospital"
      },
      {
        "id": 7048084570,
        "lat": 18.5048666,
        "lon": 73.8443399,
        "name": "Bhide Hospital",
        "type": "hospital"
      },
      {
        "id": 7048167596,
        "lat": 18.5123701,
        "lon": 73.8381752,
        "name": "Poona Laser Center",
        "type": "hospital"
      },
      {
        "id": 7048439619,
        "lat": 18.4792694,
        "lon": 73.8566422,
        "name": "Siddhant Maternity Home",
        "type": "hospital"
      },
      {
        "id": 7048498777,
        "lat": 18.5005568,
        "lon": 73.9365077,
        "name": "Remedy Hospital",
        "type": "hospital"
      },
      {
        "id": 7048504194,
        "lat": 18.5463494,
        "lon": 73.8880362,
        "name": "Amit Hospital",
        "type": "hospital"
      },
      {
        "id": 7048871849,
        "lat": 18.5022916,
        "lon": 73.8586646,
        "name": "Purandare Hospital, Pune",
        "type": "hospital"
      },
      {
        "id": 7048881959,
        "lat": 18.5199125,
        "lon": 73.8410217,
        "name": "Pramodini Urology Foundation",
        "type": "hospital"
      },
      {
        "id": 7048928941,
        "lat": 18.4802908,
        "lon": 73.8662057,
        "name": "Harsh Hospital",
        "type": "hospital"
      },
      {
        "id": 7049007104,
        "lat": 18.5019482,
        "lon": 73.9315805,
        "name": "Shraddha Hospital",
        "type": "hospital"
      },
      {
        "id": 7049213871,
        "lat": 18.5585931,
        "lon": 73.9273694,
        "name": "Salunke Hospital",
        "type": "hospital"
      },
      {
        "id": 7049267221,
        "lat": 18.5057737,
        "lon": 73.8783494,
        "name": "Moolanis Eye Care Centre",
        "type": "hospital"
      },
      {
        "id": 7049292470,
        "lat": 18.502172,
        "lon": 73.857062,
        "name": "Gokhale Hospital",
        "type": "hospital"
      },
      {
        "id": 7049507991,
        "lat": 18.4724656,
        "lon": 73.8888207,
        "name": "Wankhede Hospital",
        "type": "hospital"
      },
      {
        "id": 7049516396,
        "lat": 18.5287757,
        "lon": 73.8479868,
        "name": "Pune Fertility Center",
        "type": "hospital"
      },
      {
        "id": 7049524369,
        "lat": 18.4774187,
        "lon": 73.8237825,
        "name": "Jagtap Hospital",
        "type": "hospital"
      },
      {
        "id": 7049658153,
        "lat": 18.5171772,
        "lon": 73.8332118,
        "name": "Joshi Hospital",
        "type": "hospital"
      },
      {
        "id": 7049661473,
        "lat": 18.5875463,
        "lon": 73.8625391,
        "name": "Lifeline Hospital, Pune",
        "type": "hospital"
      },
      {
        "id": 7049723536,
        "lat": 18.4573697,
        "lon": 73.8507923,
        "name": "Dr Patwardhan Hospital",
        "type": "hospital"
      },
      {
        "id": 7049775522,
        "lat": 18.5180616,
        "lon": 73.865867,
        "name": "Shri Samarth Hospital",
        "type": "hospital"
      },
      {
        "id": 7049798376,
        "lat": 18.4851843,
        "lon": 73.7997318,
        "name": "Mai Mangeshkar Hospital",
        "type": "hospital"
      },
      {
        "id": 7049807455,
        "lat": 18.4949914,
        "lon": 73.81219,
        "name": "Kamal Netra Rugnalaya",
        "type": "hospital"
      },
      {
        "id": 7049902721,
        "lat": 18.4851967,
        "lon": 73.8092832,
        "name": "Kulkarni Hospital and Diagnostic Centre",
        "type": "hospital"
      },
      {
        "id": 7050060080,
        "lat": 18.5145168,
        "lon": 73.8317379,
        "name": "Khares Eye Institute",
        "type": "hospital"
      },
      {
        "id": 7050255935,
        "lat": 18.4785979,
        "lon": 73.8238536,
        "name": "Dr Chavans Fracture and Orthopaedic Center",
        "type": "hospital"
      },
      {
        "id": 7050392540,
        "lat": 18.4926804,
        "lon": 73.8685472,
        "name": "Gultekdi Nursing and Maternity Home",
        "type": "hospital"
      },
      {
        "id": 7050478360,
        "lat": 18.5588804,
        "lon": 73.931217,
        "name": "Agarwal Maternity and General Hospital",
        "type": "hospital"
      },
      {
        "id": 7050589614,
        "lat": 18.5158253,
        "lon": 73.8474959,
        "name": "Ashakiran Hospital",
        "type": "hospital"
      },
      {
        "id": 7050627585,
        "lat": 18.5137805,
        "lon": 73.8476971,
        "name": "Sant Dnyaneswar Medical Education Research Centre",
        "type": "hospital"
      },
      {
        "id": 7051070000,
        "lat": 18.5628578,
        "lon": 73.9320606,
        "name": "Kohakade Hospital",
        "type": "hospital"
      },
      {
        "id": 7051137462,
        "lat": 18.5259905,
        "lon": 73.85012,
        "name": "Dr. Karve Childrens Hospital",
        "type": "hospital"
      },
      {
        "id": 7051137468,
        "lat": 18.4886651,
        "lon": 73.8502412,
        "name": "Yashashree Maternity and Nursing Home",
        "type": "hospital"
      },
      {
        "id": 7051344983,
        "lat": 18.5105851,
        "lon": 73.817981,
        "name": "Vinayak Netralaya - Pune",
        "type": "hospital"
      },
      {
        "id": 7051627983,
        "lat": 18.5748353,
        "lon": 73.8277468,
        "name": "Seva Hospital",
        "type": "hospital"
      },
      {
        "id": 7051681405,
        "lat": 18.5035837,
        "lon": 73.9387286,
        "name": "Mams Sumatibhai Shah Ayurved Mahavidyalayas",
        "type": "hospital"
      },
      {
        "id": 7051906956,
        "lat": 18.4994516,
        "lon": 73.9377093,
        "name": "Abane Hospital",
        "type": "hospital"
      },
      {
        "id": 7051943843,
        "lat": 18.5152906,
        "lon": 73.8754553,
        "name": "Rahel Hospital",
        "type": "hospital"
      },
      {
        "id": 7052133789,
        "lat": 18.5076864,
        "lon": 73.831062,
        "name": "Nachiket Hospital Pvt Ltd",
        "type": "hospital"
      },
      {
        "id": 7052346355,
        "lat": 18.5601581,
        "lon": 73.8052712,
        "name": "Sai Shree Orthopaedic Super Speciality and Joint Replacement Centre",
        "type": "hospital"
      },
      {
        "id": 7052815781,
        "lat": 18.4978682,
        "lon": 73.8537562,
        "name": "Shahade Hospital",
        "type": "hospital"
      },
      {
        "id": 7052818652,
        "lat": 18.5109382,
        "lon": 73.8799037,
        "name": "Dada Laser Eye Institute",
        "type": "hospital"
      },
      {
        "id": 7052987873,
        "lat": 18.5223591,
        "lon": 73.8441311,
        "name": "Dr.Prakash Katariya Laser Cure",
        "type": "hospital"
      },
      {
        "id": 7053000962,
        "lat": 18.4900578,
        "lon": 73.8684641,
        "name": "Siddharth Hospital, Pune",
        "type": "hospital"
      },
      {
        "id": 7053195972,
        "lat": 18.490344,
        "lon": 73.8443121,
        "name": "Dr.Purohit Nursing Home",
        "type": "hospital"
      },
      {
        "id": 7053694031,
        "lat": 18.5891781,
        "lon": 73.8190953,
        "name": "Pooja Hospital, Pune",
        "type": "hospital"
      },
      {
        "id": 7053694039,
        "lat": 18.5031602,
        "lon": 73.9321491,
        "name": "Sahyadri Hospital Hadapsar",
        "type": "hospital"
      },
      {
        "id": 7053694071,
        "lat": 18.464116,
        "lon": 73.859008,
        "name": "Siddhi Hospital and Laproscopy Centre Pvt Ltd",
        "type": "hospital"
      },
      {
        "id": 7053702772,
        "lat": 18.5011902,
        "lon": 73.9383772,
        "name": "Nande Hospital",
        "type": "hospital"
      },
      {
        "id": 7053702774,
        "lat": 18.4722952,
        "lon": 73.9237216,
        "name": "PBMA's H V Desai Eye Hospital",
        "type": "hospital"
      },
      {
        "id": 7054106775,
        "lat": 18.4814034,
        "lon": 73.8724713,
        "name": "Suraj Hospital",
        "type": "hospital"
      },
      {
        "id": 7054210752,
        "lat": 18.5821441,
        "lon": 73.8283718,
        "name": "Moraya Hospital",
        "type": "hospital"
      },
      {
        "id": 7054524654,
        "lat": 18.5008462,
        "lon": 73.9305311,
        "name": "Mohintara Hospital, Hadapsar",
        "type": "hospital"
      },
      {
        "id": 7054762489,
        "lat": 18.4785438,
        "lon": 73.8235485,
        "name": "Chinchanikar Hospital",
        "type": "hospital"
      },
      {
        "id": 7054878680,
        "lat": 18.4778296,
        "lon": 73.7977711,
        "name": "Chaitanya Hospital, Bhaghirathi Nagar",
        "type": "hospital"
      },
      {
        "id": 7054910944,
        "lat": 18.4705427,
        "lon": 73.8878018,
        "name": "Dr Sarawat Memorial Hospital",
        "type": "hospital"
      },
      {
        "id": 7055062380,
        "lat": 18.5732119,
        "lon": 73.8774723,
        "name": "Vinod Memorial Multispeciality Hospital",
        "type": "hospital"
      },
      {
        "id": 7055280594,
        "lat": 18.5292449,
        "lon": 73.830716,
        "name": "Om Hospital",
        "type": "hospital"
      },
      {
        "id": 7055319028,
        "lat": 18.5964845,
        "lon": 73.8300374,
        "name": "Bagade Hospital For Women and Maternity Home",
        "type": "hospital"
      },
      {
        "id": 7055494791,
        "lat": 18.491944,
        "lon": 73.8710202,
        "name": "Pune Adventist Hospital;advantist hospital",
        "type": "hospital"
      },
      {
        "id": 7055682925,
        "lat": 18.4840672,
        "lon": 73.857003,
        "name": "Mahajan Hospital",
        "type": "hospital"
      },
      {
        "id": 7055817022,
        "lat": 18.5470843,
        "lon": 73.8885243,
        "name": "Om Prasuti Graha",
        "type": "hospital"
      },
      {
        "id": 7059664354,
        "lat": 18.5211129,
        "lon": 73.906766,
        "name": "Shreenath Hospital, Pune",
        "type": "hospital"
      },
      {
        "id": 7062490981,
        "lat": 18.5035234,
        "lon": 73.8137605,
        "name": "Subodh Hospital",
        "type": "hospital"
      },
      {
        "id": 7062490984,
        "lat": 18.4689649,
        "lon": 73.8572026,
        "name": "Pai Hospital, Pune",
        "type": "hospital"
      },
      {
        "id": 7062497086,
        "lat": 18.5083289,
        "lon": 73.8457009,
        "name": "Chinmay Institute Of Paediatrics",
        "type": "hospital"
      },
      {
        "id": 7062497106,
        "lat": 18.4797674,
        "lon": 73.8251685,
        "name": "Patil Hospital - Pune",
        "type": "hospital"
      },
      {
        "id": 7062592060,
        "lat": 18.4653028,
        "lon": 73.864194,
        "name": "Shree.J.Hospital",
        "type": "hospital"
      },
      {
        "id": 7063077070,
        "lat": 18.5183547,
        "lon": 73.8404001,
        "name": "Paranjpe Eye Clinic and Eye Surgery Centre",
        "type": "hospital"
      },
      {
        "id": 7063805569,
        "lat": 18.5626283,
        "lon": 73.938176,
        "name": "K. K. Hospital - Pune",
        "type": "hospital"
      },
      {
        "id": 7063808901,
        "lat": 18.504933,
        "lon": 73.8303593,
        "name": "Ace Hospital",
        "type": "hospital"
      },
      {
        "id": 7063909902,
        "lat": 18.5569451,
        "lon": 73.9074788,
        "name": "Jeewan Jyot Multispeciality Medical Care Center",
        "type": "hospital"
      },
      {
        "id": 7064364271,
        "lat": 18.5023551,
        "lon": 73.9288205,
        "name": "Pooja Hospital",
        "type": "hospital"
      },
      {
        "id": 7064475588,
        "lat": 18.4522084,
        "lon": 73.890656,
        "name": "Chandra Hospital",
        "type": "hospital"
      },
      {
        "id": 7064755544,
        "lat": 18.4994249,
        "lon": 73.9469039,
        "name": "Vaibhavi Hospital",
        "type": "hospital"
      },
      {
        "id": 7065561512,
        "lat": 18.5013237,
        "lon": 73.8410144,
        "name": "Global Hospital & Research Institute",
        "type": "hospital"
      },
      {
        "id": 7065820589,
        "lat": 18.5089079,
        "lon": 73.834105,
        "name": "Lokmanya Hospital, Pune",
        "type": "hospital"
      },
      {
        "id": 7066505782,
        "lat": 18.4833651,
        "lon": 73.8004071,
        "name": "Lodha Hospital, Pune",
        "type": "hospital"
      },
      {
        "id": 7066954920,
        "lat": 18.4541274,
        "lon": 73.8881166,
        "name": "Adarsh Hospital, Pune",
        "type": "hospital"
      },
      {
        "id": 7068097000,
        "lat": 18.5194471,
        "lon": 73.8658999,
        "name": "Dhanwantari Hospital",
        "type": "hospital"
      },
      {
        "id": 7068155283,
        "lat": 18.5226796,
        "lon": 73.8508487,
        "name": "Pungliya Hospital",
        "type": "hospital"
      },
      {
        "id": 7068194960,
        "lat": 18.526235,
        "lon": 73.871161,
        "name": "B.J.Medical College and Sassoon Hospital",
        "type": "hospital"
      },
      {
        "id": 7068429388,
        "lat": 18.4954696,
        "lon": 73.8583709,
        "name": "Karne Hospital Pvt Ltd",
        "type": "hospital"
      },
      {
        "id": 7069569120,
        "lat": 18.5040492,
        "lon": 73.8518391,
        "name": "Vibhute Hospital",
        "type": "hospital"
      },
      {
        "id": 7069813988,
        "lat": 18.5103392,
        "lon": 73.9380687,
        "name": "Yash Hospital - V.K. Medical Foundation",
        "type": "hospital"
      },
      {
        "id": 7069814051,
        "lat": 18.5097841,
        "lon": 73.8029893,
        "name": "Kulkarni Endo Surgery Institute and Reconstructive Urology Centre",
        "type": "hospital"
      },
      {
        "id": 7070130323,
        "lat": 18.4854879,
        "lon": 73.8717458,
        "name": "Vinnayak Hospital",
        "type": "hospital"
      },
      {
        "id": 7070131414,
        "lat": 18.5756743,
        "lon": 73.8196734,
        "name": "Dr Makan Surgical Maternity and Accident Hospital",
        "type": "hospital"
      },
      {
        "id": 7070722452,
        "lat": 18.5486475,
        "lon": 73.8893055,
        "name": "Shah Hospital",
        "type": "hospital"
      },
      {
        "id": 7070859090,
        "lat": 18.5518547,
        "lon": 73.9368054,
        "name": "Prathmesh Hospital",
        "type": "hospital"
      },
      {
        "id": 7072638950,
        "lat": 18.5298629,
        "lon": 73.8760869,
        "name": "Pune City Eye Hospital",
        "type": "hospital"
      },
      {
        "id": 7072671011,
        "lat": 18.5498719,
        "lon": 73.8887711,
        "name": "Talesara Hospital",
        "type": "hospital"
      },
      {
        "id": 7072947989,
        "lat": 18.5093803,
        "lon": 73.7901476,
        "name": "Borse Nursing Home",
        "type": "hospital"
      },
      {
        "id": 7073537781,
        "lat": 18.5114494,
        "lon": 73.836472,
        "name": "Deodhar Eye Hospital",
        "type": "hospital"
      },
      {
        "id": 7073537787,
        "lat": 18.5164841,
        "lon": 73.7818475,
        "name": "Om Hospital, Bavdhan",
        "type": "hospital"
      },
      {
        "id": 7073895620,
        "lat": 18.5112078,
        "lon": 73.8513154,
        "name": "Godbole Hospital",
        "type": "hospital"
      },
      {
        "id": 7073916601,
        "lat": 18.4626294,
        "lon": 73.7748331,
        "name": "Sanjeevani Hospital",
        "type": "hospital"
      },
      {
        "id": 7073944656,
        "lat": 18.5456309,
        "lon": 73.8862083,
        "name": "Kataria Hospital",
        "type": "hospital"
      },
      {
        "id": 7073949807,
        "lat": 18.5092716,
        "lon": 73.8449264,
        "name": "Dr.Pawar Eye Hospital",
        "type": "hospital"
      },
      {
        "id": 7073949844,
        "lat": 18.5596864,
        "lon": 73.8148253,
        "name": "National Institute Of Ophthalmology",
        "type": "hospital"
      },
      {
        "id": 7073949908,
        "lat": 18.5307444,
        "lon": 73.8771894,
        "name": "Nm Wadia Institute Of Cardiology",
        "type": "hospital"
      },
      {
        "id": 7074576486,
        "lat": 18.5851041,
        "lon": 73.819735,
        "name": "Bhakti Hospital",
        "type": "hospital"
      },
      {
        "id": 7074576510,
        "lat": 18.503632,
        "lon": 73.9381224,
        "name": "Sane Guruji Arogya Kendra",
        "type": "hospital"
      },
      {
        "id": 7076529383,
        "lat": 18.4777164,
        "lon": 73.8234164,
        "name": "Bhandari Maternity and Nursing Home",
        "type": "hospital"
      },
      {
        "id": 7076609422,
        "lat": 18.5195234,
        "lon": 73.862059,
        "name": "Samarth Hospital, Pune",
        "type": "hospital"
      },
      {
        "id": 7076609427,
        "lat": 18.5550536,
        "lon": 73.8162401,
        "name": "Amai Charitable Trust Institute Of Urology",
        "type": "hospital"
      },
      {
        "id": 7076609433,
        "lat": 18.5247371,
        "lon": 73.8408494,
        "name": "Z Y - Vision",
        "type": "hospital"
      },
      {
        "id": 7079392093,
        "lat": 18.5155666,
        "lon": 73.8418673,
        "name": "Shreeyash Hospital, Pune",
        "type": "hospital"
      },
      {
        "id": 7079392109,
        "lat": 18.5229518,
        "lon": 73.8639473,
        "name": "Dr. Todkar Hospital",
        "type": "hospital"
      },
      {
        "id": 7079392124,
        "lat": 18.4891281,
        "lon": 73.8138248,
        "name": "Khenat Hospital and Maternity Home",
        "type": "hospital"
      },
      {
        "id": 7079411416,
        "lat": 18.5117788,
        "lon": 73.8487867,
        "name": "Manoj Clinic / Gore Hospital",
        "type": "hospital"
      },
      {
        "id": 7079665745,
        "lat": 18.4777316,
        "lon": 73.8239729,
        "name": "Pharande Eye Hospital",
        "type": "hospital"
      },
      {
        "id": 7080205212,
        "lat": 18.5113846,
        "lon": 73.8458276,
        "name": "Vishwaniranjan Eye Hospital",
        "type": "hospital"
      },
      {
        "id": 7080229635,
        "lat": 18.5728934,
        "lon": 73.8249265,
        "name": "Dhanvantary Hospital",
        "type": "hospital"
      },
      {
        "id": 7080269598,
        "lat": 18.4845772,
        "lon": 73.8159759,
        "name": "Shree Nursing and Maternity Home",
        "type": "hospital"
      },
      {
        "id": 7080269671,
        "lat": 18.5092455,
        "lon": 73.8483354,
        "name": "Ram Krishna Hospital, Pune",
        "type": "hospital"
      },
      {
        "id": 7080269673,
        "lat": 18.4664871,
        "lon": 73.857691,
        "name": "Shatayu Hospital",
        "type": "hospital"
      },
      {
        "id": 7081227365,
        "lat": 18.5593966,
        "lon": 73.8025528,
        "name": "Sanjeevan Maternity and Surgical Hospital",
        "type": "hospital"
      },
      {
        "id": 7081375496,
        "lat": 18.5697941,
        "lon": 73.8818973,
        "name": "Serene Hospital Pvt Ltd",
        "type": "hospital"
      },
      {
        "id": 7082518997,
        "lat": 18.5994905,
        "lon": 73.7636078,
        "name": "Polaris Health Care",
        "type": "hospital"
      },
      {
        "id": 7082519014,
        "lat": 18.5049909,
        "lon": 73.9022358,
        "name": "Deshpande Hospital",
        "type": "hospital"
      },
      {
        "id": 7083324260,
        "lat": 18.5207937,
        "lon": 73.8452496,
        "name": "Centre For Laproscopy Surgery",
        "type": "hospital"
      },
      {
        "id": 7085878707,
        "lat": 18.5070645,
        "lon": 73.8782608,
        "name": "Kawedia Hospital",
        "type": "hospital"
      },
      {
        "id": 7086516364,
        "lat": 18.4685007,
        "lon": 73.920515,
        "name": "Om Shakti Chaya Hospital - Rsby",
        "type": "hospital"
      },
      {
        "id": 7086532369,
        "lat": 18.5054055,
        "lon": 73.817541,
        "name": "Ambekar Hospital",
        "type": "hospital"
      },
      {
        "id": 7086795229,
        "lat": 18.467118,
        "lon": 73.8190001,
        "name": "Kamaladevi Maternity Hospital & Research Home",
        "type": "hospital"
      },
      {
        "id": 7087491750,
        "lat": 18.5001435,
        "lon": 73.8542376,
        "name": "Harijivan Hospital",
        "type": "hospital"
      },
      {
        "id": 7087636855,
        "lat": 18.575223,
        "lon": 73.8173626,
        "name": "Nityaseva Eye Hsopital and Eye Bank",
        "type": "hospital"
      },
      {
        "id": 7087636861,
        "lat": 18.4909481,
        "lon": 73.8580129,
        "name": "Dugad Hospital Pvt Ltd",
        "type": "hospital"
      },
      {
        "id": 7157923284,
        "lat": 18.5004494,
        "lon": 73.9360535,
        "name": "Dhanvantari Hospital",
        "type": "hospital"
      },
      {
        "id": 7210920527,
        "lat": 18.4891931,
        "lon": 73.8140419,
        "name": "Agrawal Hospital",
        "type": "hospital"
      },
      {
        "id": 7213397284,
        "lat": 18.5618595,
        "lon": 73.892592,
        "name": "Inaam General Hospital",
        "type": "hospital"
      },
      {
        "id": 7213418416,
        "lat": 18.560232,
        "lon": 73.8953506,
        "name": "Aditya Eye Hospital & Lasik Centre",
        "type": "hospital"
      },
      {
        "id": 7213421048,
        "lat": 18.5543086,
        "lon": 73.8971383,
        "name": "Sahyadri Super Speciality Hospital",
        "type": "hospital"
      },
      {
        "id": 7213434440,
        "lat": 18.56295,
        "lon": 73.8942307,
        "name": "Rutu Anand Hospital",
        "type": "hospital"
      },
      {
        "id": 7213437174,
        "lat": 18.5565024,
        "lon": 73.8972835,
        "name": "Freedom Fighter Gangaram Karne Hospital",
        "type": "hospital"
      },
      {
        "id": 7213442686,
        "lat": 18.5623853,
        "lon": 73.8965795,
        "name": "Chatrapati Shivray Hospital Pune",
        "type": "hospital"
      },
      {
        "id": 7213470815,
        "lat": 18.5533588,
        "lon": 73.8989792,
        "name": "Shree Hospital",
        "type": "hospital"
      },
      {
        "id": 7213492164,
        "lat": 18.5536181,
        "lon": 73.899622,
        "name": "Neney's Hospital",
        "type": "hospital"
      },
      {
        "id": 7226627567,
        "lat": 18.503916,
        "lon": 73.890117,
        "name": "PMC ARMED FORCE MEDICAL COLLEGE(AFMC)",
        "type": "hospital"
      },
      {
        "id": 7226627619,
        "lat": 18.457239,
        "lon": 73.855026,
        "name": "Bharati Vidyapeeth Dental College and Hospital",
        "type": "hospital"
      },
      {
        "id": 7226627646,
        "lat": 18.48356,
        "lon": 73.792632,
        "name": "Arvind Ganpat Bartakke Dawakhana Atulnagar",
        "type": "hospital"
      },
      {
        "id": 7226627660,
        "lat": 18.4623918,
        "lon": 73.804957,
        "name": "Murlidhar Pandurang Laigude Hospital",
        "type": "hospital"
      },
      {
        "id": 7226627720,
        "lat": 18.5024088,
        "lon": 73.8386813,
        "name": "Late Anandibai Narhar Gadgil Hospital",
        "type": "hospital"
      },
      {
        "id": 7226727370,
        "lat": 18.513913,
        "lon": 73.846551,
        "name": "Sutika Seva Mandir",
        "type": "hospital"
      },
      {
        "id": 7226727387,
        "lat": 18.561134,
        "lon": 73.921412,
        "name": "PMC Sangamnerkar Hospital (N. G. O.)",
        "type": "hospital"
      },
      {
        "id": 7226727390,
        "lat": 18.5770661,
        "lon": 73.8990724,
        "name": "Chris Rock Edward Paul Hospital",
        "type": "hospital"
      },
      {
        "id": 7226727441,
        "lat": 18.521872,
        "lon": 73.873118,
        "name": "Sasoon Hospital",
        "type": "hospital"
      },
      {
        "id": 7466308062,
        "lat": 18.5977182,
        "lon": 73.9028326,
        "name": "Dr Bhore's Mother & Child Clinic",
        "type": "hospital"
      },
      {
        "id": 7466371303,
        "lat": 18.596865,
        "lon": 73.9001514,
        "name": "CT Nursing Home",
        "type": "hospital"
      },
      {
        "id": 7614911547,
        "lat": 18.506552,
        "lon": 73.7886402,
        "name": "FPA , Kothrud",
        "type": "hospital"
      },
      {
        "id": 7621410003,
        "lat": 18.5030769,
        "lon": 73.8446917,
        "name": "Colony Nursing Home",
        "type": "hospital"
      },
      {
        "id": 7649461714,
        "lat": 18.557773,
        "lon": 73.793639,
        "name": "Gupte Hospital Extension Clinic",
        "type": "hospital"
      },
      {
        "id": 7649461720,
        "lat": 18.5593096,
        "lon": 73.7895512,
        "name": "Dhanwantari Hospital",
        "type": "hospital"
      },
      {
        "id": 7649461721,
        "lat": 18.5828476,
        "lon": 73.8122787,
        "name": "Bora Hospital",
        "type": "hospital"
      },
      {
        "id": 7649461724,
        "lat": 18.500617,
        "lon": 73.9364994,
        "name": "Shivam Hospital",
        "type": "hospital"
      },
      {
        "id": 7649461729,
        "lat": 18.494483,
        "lon": 73.902522,
        "name": "Kamal Hospital",
        "type": "hospital"
      },
      {
        "id": 7649461731,
        "lat": 18.5535131,
        "lon": 73.7537866,
        "name": "Prime Multispeciality Hospital",
        "type": "hospital"
      },
      {
        "id": 7649461732,
        "lat": 18.5537182,
        "lon": 73.9395977,
        "name": "Goodwill Icon Hospital",
        "type": "hospital"
      },
      {
        "id": 7649461745,
        "lat": 18.5492968,
        "lon": 73.8888427,
        "name": "Petals Hospital",
        "type": "hospital"
      },
      {
        "id": 7649461747,
        "lat": 18.5535506,
        "lon": 73.80838,
        "name": "Dr. Agarwals Eye Hospital",
        "type": "hospital"
      },
      {
        "id": 7649461752,
        "lat": 18.4768406,
        "lon": 73.9257973,
        "name": "Londhe Hospital",
        "type": "hospital"
      },
      {
        "id": 7649461753,
        "lat": 18.5806656,
        "lon": 73.8307214,
        "name": "Snehbandh Multispeciality Hospital",
        "type": "hospital"
      },
      {
        "id": 7649461754,
        "lat": 18.530716,
        "lon": 73.876952,
        "name": "N. M. Wadia Hospital",
        "type": "hospital"
      },
      {
        "id": 7649461757,
        "lat": 18.4820937,
        "lon": 73.8993556,
        "name": "Shahu Hospital",
        "type": "hospital"
      },
      {
        "id": 7649461763,
        "lat": 18.540958,
        "lon": 73.829755,
        "name": "Dr. Shraddha Angal",
        "type": "hospital"
      },
      {
        "id": 7649461770,
        "lat": 18.4890478,
        "lon": 73.9498267,
        "name": "Omkar Children Hospital",
        "type": "hospital"
      },
      {
        "id": 7649461774,
        "lat": 18.5035846,
        "lon": 73.9273481,
        "name": "Noble Hospital",
        "type": "hospital"
      },
      {
        "id": 7649461779,
        "lat": 18.4956457,
        "lon": 73.884521,
        "name": "New Command Hospital",
        "type": "hospital"
      },
      {
        "id": 7649461780,
        "lat": 18.483917,
        "lon": 73.939737,
        "name": "Sushrusha Hospital",
        "type": "hospital"
      },
      {
        "id": 7649461781,
        "lat": 18.586342,
        "lon": 73.813735,
        "name": "Aditya Hospital",
        "type": "hospital"
      },
      {
        "id": 7649461783,
        "lat": 18.569842,
        "lon": 73.8823303,
        "name": "Serene Hospital",
        "type": "hospital"
      },
      {
        "id": 7649461787,
        "lat": 18.519983,
        "lon": 73.9067768,
        "name": "Chaitanya General Hospital",
        "type": "hospital"
      },
      {
        "id": 7649461788,
        "lat": 18.5015481,
        "lon": 73.9357865,
        "name": "Dharmadhikari Hospital",
        "type": "hospital"
      },
      {
        "id": 7649461789,
        "lat": 18.4869268,
        "lon": 73.9421209,
        "name": "Dinkar Hospital",
        "type": "hospital"
      },
      {
        "id": 7649461791,
        "lat": 18.5889738,
        "lon": 73.8165592,
        "name": "Pagare Hospital",
        "type": "hospital"
      },
      {
        "id": 7649461792,
        "lat": 18.5515015,
        "lon": 73.9411724,
        "name": "Shree Hospital",
        "type": "hospital"
      },
      {
        "id": 7649461796,
        "lat": 18.5687508,
        "lon": 73.8486366,
        "name": "Dr. Babasaheb Ambedkar Cantonment General Hospital",
        "type": "hospital"
      },
      {
        "id": 7649461802,
        "lat": 18.4879916,
        "lon": 73.9389363,
        "name": "Life Care Multispecality Hospital",
        "type": "hospital"
      },
      {
        "id": 7649461803,
        "lat": 18.488725,
        "lon": 73.949843,
        "name": "Sadhana Hospital",
        "type": "hospital"
      },
      {
        "id": 7649461805,
        "lat": 18.5725401,
        "lon": 73.8815063,
        "name": "Kasturba General Hospital",
        "type": "hospital"
      },
      {
        "id": 7649461807,
        "lat": 18.588825,
        "lon": 73.817373,
        "name": "Sudarshan Hospital",
        "type": "hospital"
      },
      {
        "id": 7649461810,
        "lat": 18.5684211,
        "lon": 73.8797365,
        "name": "Vinayak Hospital",
        "type": "hospital"
      },
      {
        "id": 7649461817,
        "lat": 18.4756744,
        "lon": 73.931237,
        "name": "Aadhar Hospital",
        "type": "hospital"
      },
      {
        "id": 7649461818,
        "lat": 18.5984676,
        "lon": 73.8285109,
        "name": "Max Neuro Hospital",
        "type": "hospital"
      },
      {
        "id": 7649461823,
        "lat": 18.5409242,
        "lon": 73.935679,
        "name": "Manipal Hospital, Pune",
        "type": "hospital"
      },
      {
        "id": 7649461825,
        "lat": 18.49253,
        "lon": 73.9037686,
        "name": "Ayodhya Trust General Hospital",
        "type": "hospital"
      },
      {
        "id": 7651453308,
        "lat": 18.4581135,
        "lon": 73.8781846,
        "name": "Chordiya Nursing Home",
        "type": "hospital"
      },
      {
        "id": 7651453309,
        "lat": 18.498738,
        "lon": 73.838315,
        "name": "Anup Hospital",
        "type": "hospital"
      },
      {
        "id": 7651453312,
        "lat": 18.5075984,
        "lon": 73.8439447,
        "name": "Apex Superspeciality Hospital",
        "type": "hospital"
      },
      {
        "id": 7651453318,
        "lat": 18.51024,
        "lon": 73.8522294,
        "name": "Date Hospital",
        "type": "hospital"
      },
      {
        "id": 7651453320,
        "lat": 18.5147901,
        "lon": 73.8484343,
        "name": "Morya General Hospital",
        "type": "hospital"
      },
      {
        "id": 7651453323,
        "lat": 18.492348,
        "lon": 73.853457,
        "name": "Suman Hospital",
        "type": "hospital"
      },
      {
        "id": 7651453325,
        "lat": 18.4723283,
        "lon": 73.8923643,
        "name": "Lifeline Hospital",
        "type": "hospital"
      },
      {
        "id": 7651453326,
        "lat": 18.5107027,
        "lon": 73.8434338,
        "name": "Sabane Hospital",
        "type": "hospital"
      },
      {
        "id": 7651453329,
        "lat": 18.512445,
        "lon": 73.869389,
        "name": "Kamat Hospital",
        "type": "hospital"
      },
      {
        "id": 7651453330,
        "lat": 18.496127,
        "lon": 73.817109,
        "name": "Bindu Madhav Thakarey Hospital",
        "type": "hospital"
      },
      {
        "id": 7651453334,
        "lat": 18.4714238,
        "lon": 73.8887261,
        "name": "National Hospital",
        "type": "hospital"
      },
      {
        "id": 7651453335,
        "lat": 18.47396,
        "lon": 73.889134,
        "name": "Meenatai Thakre Maternity Home",
        "type": "hospital"
      },
      {
        "id": 7651453338,
        "lat": 18.4947224,
        "lon": 73.8229041,
        "name": "Bhagirathi Children's Hospital",
        "type": "hospital"
      },
      {
        "id": 7651453339,
        "lat": 18.5086317,
        "lon": 73.8744506,
        "name": "Vishranti Hospital",
        "type": "hospital"
      },
      {
        "id": 7651453340,
        "lat": 18.516314,
        "lon": 73.871996,
        "name": "Matru Seva Hospital;Pacharne Hospital",
        "type": "hospital"
      },
      {
        "id": 7651453344,
        "lat": 18.4909252,
        "lon": 73.845933,
        "name": "Shraddha Hospital",
        "type": "hospital"
      },
      {
        "id": 7651453349,
        "lat": 18.4975587,
        "lon": 73.8513176,
        "name": "Purohit Hospital",
        "type": "hospital"
      },
      {
        "id": 7651453350,
        "lat": 18.4553105,
        "lon": 73.8690108,
        "name": "Prerna Hospital",
        "type": "hospital"
      },
      {
        "id": 7651453353,
        "lat": 18.530365,
        "lon": 73.842063,
        "name": "Bapat Hospital",
        "type": "hospital"
      },
      {
        "id": 7651453361,
        "lat": 18.470806,
        "lon": 73.888399,
        "name": "New Pune Hospital",
        "type": "hospital"
      },
      {
        "id": 7651453365,
        "lat": 18.4891725,
        "lon": 73.8571698,
        "name": "Kothari Orthopaedic Hospital",
        "type": "hospital"
      },
      {
        "id": 7651453367,
        "lat": 18.5046645,
        "lon": 73.8592129,
        "name": "Kalyani Hospital",
        "type": "hospital"
      },
      {
        "id": 7651453368,
        "lat": 18.5218011,
        "lon": 73.8622355,
        "name": "Kumbhare Hospital",
        "type": "hospital"
      },
      {
        "id": 7651453369,
        "lat": 18.510438,
        "lon": 73.847875,
        "name": "योगेश हॉस्पिटल",
        "type": "hospital"
      },
      {
        "id": 7651453370,
        "lat": 18.502188,
        "lon": 73.857108,
        "name": "Gokhale Hospital",
        "type": "hospital"
      },
      {
        "id": 7651453375,
        "lat": 18.5231039,
        "lon": 73.8681573,
        "name": "Sai Samarth Hospital",
        "type": "hospital"
      },
      {
        "id": 7651453377,
        "lat": 18.4962994,
        "lon": 73.8702072,
        "name": "Dr. Baba Saheb Ambedkar Hospital;dr baba saheb ambedkar hospital",
        "type": "hospital"
      },
      {
        "id": 7651453378,
        "lat": 18.5107128,
        "lon": 73.8660862,
        "name": "Todkar Hospital",
        "type": "hospital"
      },
      {
        "id": 7651453379,
        "lat": 18.5137927,
        "lon": 73.8476204,
        "name": "Shaishav Children's Hospital",
        "type": "hospital"
      },
      {
        "id": 7651453383,
        "lat": 18.5001862,
        "lon": 73.8124022,
        "name": "Suyash Hospital",
        "type": "hospital"
      },
      {
        "id": 7651453385,
        "lat": 18.5297435,
        "lon": 73.8339823,
        "name": "Swanand Maternity Hospital",
        "type": "hospital"
      },
      {
        "id": 7651453386,
        "lat": 18.5071504,
        "lon": 73.7997343,
        "name": "City Hospital",
        "type": "hospital"
      },
      {
        "id": 7651453389,
        "lat": 18.474694,
        "lon": 73.858715,
        "name": "Parasnis Hospital",
        "type": "hospital"
      },
      {
        "id": 7651453390,
        "lat": 18.5122403,
        "lon": 73.8499324,
        "name": "Shintre Hospital",
        "type": "hospital"
      },
      {
        "id": 7651453392,
        "lat": 18.5025447,
        "lon": 73.8686993,
        "name": "Alliance Munot Hospital;munot hospital",
        "type": "hospital"
      },
      {
        "id": 7651453393,
        "lat": 18.5150421,
        "lon": 73.8464127,
        "name": "Kalavati Mavale Hospital",
        "type": "hospital"
      },
      {
        "id": 7651453399,
        "lat": 18.528932,
        "lon": 73.8436351,
        "name": "ASG Eye Hospital",
        "type": "hospital"
      },
      {
        "id": 7651453401,
        "lat": 18.5091812,
        "lon": 73.8149589,
        "name": "Rode Hospital",
        "type": "hospital"
      },
      {
        "id": 7651453402,
        "lat": 18.505204,
        "lon": 73.834167,
        "name": "Mantri Hospital",
        "type": "hospital"
      },
      {
        "id": 7651453403,
        "lat": 18.5029885,
        "lon": 73.8682087,
        "name": "Kering Hospital;kering clinic",
        "type": "hospital"
      },
      {
        "id": 7651453404,
        "lat": 18.4559009,
        "lon": 73.8709944,
        "name": "Siddhivinayak Hospital",
        "type": "hospital"
      },
      {
        "id": 7651453409,
        "lat": 18.5143478,
        "lon": 73.868913,
        "name": "Kirad Hospital",
        "type": "hospital"
      },
      {
        "id": 7651453412,
        "lat": 18.50451,
        "lon": 73.8628189,
        "name": "Chajed Hospital",
        "type": "hospital"
      },
      {
        "id": 7651453413,
        "lat": 18.5200596,
        "lon": 73.8669776,
        "name": "KEM Hospital",
        "type": "hospital"
      },
      {
        "id": 7651453415,
        "lat": 18.5126915,
        "lon": 73.869516,
        "name": "Hope Hospital",
        "type": "hospital"
      },
      {
        "id": 7651453417,
        "lat": 18.525279,
        "lon": 73.870499,
        "name": "David Sassoon Hospital",
        "type": "hospital"
      },
      {
        "id": 7651453418,
        "lat": 18.5245059,
        "lon": 73.8438216,
        "name": "MJM Hospital",
        "type": "hospital"
      },
      {
        "id": 7651453422,
        "lat": 18.502202,
        "lon": 73.8584592,
        "name": "Chavan Hospital",
        "type": "hospital"
      },
      {
        "id": 8204734780,
        "lat": 18.5062067,
        "lon": 73.8625971,
        "name": "dental health care",
        "type": "hospital"
      },
      {
        "id": 8257047090,
        "lat": 18.4889132,
        "lon": 73.8990842,
        "name": "ARCUS HOSPITAL",
        "type": "hospital"
      },
      {
        "id": 8257587510,
        "lat": 18.4852917,
        "lon": 73.8514295,
        "name": "Sai Allergy asthma Eye Children Hospital",
        "type": "hospital"
      },
      {
        "id": 8257680507,
        "lat": 18.5067869,
        "lon": 73.8037337,
        "name": "Sathe Multispeciality Hospital",
        "type": "hospital"
      },
      {
        "id": 8266093820,
        "lat": 18.5136297,
        "lon": 73.8285827,
        "name": "Facethetics - Dental, Facial Cosmetics(BOTOX), & Hair Transplant Clinique",
        "type": "hospital"
      },
      {
        "id": 8272614789,
        "lat": 18.5759709,
        "lon": 73.8258994,
        "name": "Unnamed",
        "type": "hospital"
      },
      {
        "id": 8273719055,
        "lat": 18.5664237,
        "lon": 73.8144112,
        "name": "Shree Hospital",
        "type": "hospital"
      },
      {
        "id": 8552556595,
        "lat": 18.5836745,
        "lon": 73.8846483,
        "name": "Karan Hospital",
        "type": "hospital"
      },
      {
        "id": 8806123923,
        "lat": 18.5607785,
        "lon": 73.8444489,
        "name": "Ordnance Factory Hospital",
        "type": "hospital"
      },
      {
        "id": 8811048175,
        "lat": 18.4643898,
        "lon": 73.8153134,
        "name": "Morya Multispeciality Hospital",
        "type": "hospital"
      },
      {
        "id": 8813394447,
        "lat": 18.502785,
        "lon": 73.8500051,
        "name": "Matoshri Ramabai Ambedkar Prasutigriha",
        "type": "hospital"
      },
      {
        "id": 8813476678,
        "lat": 18.5048618,
        "lon": 73.8611993,
        "name": "Savitribai Phule Meternity Home",
        "type": "hospital"
      },
      {
        "id": 8813532472,
        "lat": 18.4677248,
        "lon": 73.8683031,
        "name": "Premchand Oswal Hospital",
        "type": "hospital"
      },
      {
        "id": 8813545344,
        "lat": 18.4993855,
        "lon": 73.8470078,
        "name": "Janata Hospital ,Pune",
        "type": "hospital"
      },
      {
        "id": 8813559775,
        "lat": 18.4652208,
        "lon": 73.8495579,
        "name": "Government Hospital, Dhankawadi",
        "type": "hospital"
      },
      {
        "id": 8813588472,
        "lat": 18.4533972,
        "lon": 73.8698521,
        "name": "Vasant More Hospital",
        "type": "hospital"
      },
      {
        "id": 8813660507,
        "lat": 18.4925761,
        "lon": 73.8665946,
        "name": "G B Indumati Manilal Khanna Hospital",
        "type": "hospital"
      },
      {
        "id": 8813705904,
        "lat": 18.4934295,
        "lon": 73.9315228,
        "name": "Varadvinayak Children and Eye Hospital",
        "type": "hospital"
      },
      {
        "id": 8813801075,
        "lat": 18.5537402,
        "lon": 73.9393307,
        "name": "Rising Medicare Hospital",
        "type": "hospital"
      },
      {
        "id": 8814055556,
        "lat": 18.4753187,
        "lon": 73.7975854,
        "name": "Late Pruthak Barate Hospital",
        "type": "hospital"
      },
      {
        "id": 8814103200,
        "lat": 18.5029796,
        "lon": 73.8520221,
        "name": "Apollo Spectra Hospitals",
        "type": "hospital"
      },
      {
        "id": 9128842332,
        "lat": 18.4713114,
        "lon": 73.8878684,
        "name": "city hospiyal",
        "type": "hospital"
      },
      {
        "id": 9143796444,
        "lat": 18.4747094,
        "lon": 73.8844764,
        "name": "Om Hospital in Pune",
        "type": "hospital"
      },
      {
        "id": 9180373001,
        "lat": 18.5196786,
        "lon": 73.769934,
        "name": "Chellaram Hospital",
        "type": "hospital"
      },
      {
        "id": 9198957609,
        "lat": 18.597536,
        "lon": 73.9088733,
        "name": "Om Childrens Clinic",
        "type": "hospital"
      },
      {
        "id": 9215613545,
        "lat": 18.5629303,
        "lon": 73.9400147,
        "name": "Thite Multispeciality Hospital",
        "type": "hospital"
      },
      {
        "id": 9215757550,
        "lat": 18.5078453,
        "lon": 73.8265103,
        "name": "Metropolis Healthcare Ltd",
        "type": "hospital"
      },
      {
        "id": 9215836851,
        "lat": 18.5503243,
        "lon": 73.9372721,
        "name": "Shree laxmi Hospital",
        "type": "hospital"
      },
      {
        "id": 9295472627,
        "lat": 18.5178773,
        "lon": 73.842284,
        "name": "Joshi Hospital",
        "type": "hospital"
      },
      {
        "id": 9296005824,
        "lat": 18.5334658,
        "lon": 73.8769727,
        "name": "Ruby Hall",
        "type": "hospital"
      },
      {
        "id": 9403075422,
        "lat": 18.5639725,
        "lon": 73.777019,
        "name": "Benecare Superspeciality Hospital",
        "type": "hospital"
      },
      {
        "id": 9469034214,
        "lat": 18.5167814,
        "lon": 73.774807,
        "name": "Tirupati Hospital",
        "type": "hospital"
      },
      {
        "id": 9954213614,
        "lat": 18.5867313,
        "lon": 73.7809817,
        "name": "Mule Hospital and Chikitsalay diagnostics",
        "type": "hospital"
      },
      {
        "id": 9981925165,
        "lat": 18.5945809,
        "lon": 73.7687807,
        "name": "Little miracle childrens hospital",
        "type": "hospital"
      },
      {
        "id": 10010729790,
        "lat": 18.5663598,
        "lon": 73.7695757,
        "name": "Manipal Hospital",
        "type": "hospital"
      },
      {
        "id": 10108645141,
        "lat": 18.479729,
        "lon": 73.8282621,
        "name": "Aashirwad Hospital",
        "type": "hospital"
      },
      {
        "id": 10172902303,
        "lat": 18.5107733,
        "lon": 73.8660853,
        "name": "Todkar Hospital",
        "type": "hospital"
      },
      {
        "id": 10172902304,
        "lat": 18.5157161,
        "lon": 73.8688388,
        "name": "Modern Hospital",
        "type": "hospital"
      },
      {
        "id": 10172914027,
        "lat": 18.4873135,
        "lon": 73.8761077,
        "name": "mothercare hospital",
        "type": "hospital"
      },
      {
        "id": 10172914028,
        "lat": 18.4864264,
        "lon": 73.8740424,
        "name": "metro advanced homeopathy clinic",
        "type": "hospital"
      },
      {
        "id": 10172914029,
        "lat": 18.4814426,
        "lon": 73.872471,
        "name": "suraj hospital",
        "type": "hospital"
      },
      {
        "id": 10172914030,
        "lat": 18.4840027,
        "lon": 73.8716266,
        "name": "anvi ENT and thyroid clinic",
        "type": "hospital"
      },
      {
        "id": 10172914032,
        "lat": 18.5012435,
        "lon": 73.8663445,
        "name": "sharda clinic",
        "type": "hospital"
      },
      {
        "id": 10172914040,
        "lat": 18.4958983,
        "lon": 73.8886709,
        "name": "immunology and rheumatology clinic",
        "type": "hospital"
      },
      {
        "id": 10172914042,
        "lat": 18.4781663,
        "lon": 73.8621023,
        "name": "sahyadri hospital",
        "type": "hospital"
      },
      {
        "id": 10172914043,
        "lat": 18.4803051,
        "lon": 73.8661942,
        "name": "harsh hospital",
        "type": "hospital"
      },
      {
        "id": 10172914044,
        "lat": 18.5644671,
        "lon": 73.9139265,
        "name": "apollo clinic",
        "type": "hospital"
      },
      {
        "id": 10172914045,
        "lat": 18.474674,
        "lon": 73.8580682,
        "name": "bhagali clinic and nursing home",
        "type": "hospital"
      },
      {
        "id": 10172914046,
        "lat": 18.4734893,
        "lon": 73.8626065,
        "name": "sayar hospital",
        "type": "hospital"
      },
      {
        "id": 10172914047,
        "lat": 18.4728083,
        "lon": 73.8631451,
        "name": "isshan orthopedic hospital",
        "type": "hospital"
      },
      {
        "id": 10172914048,
        "lat": 18.4705573,
        "lon": 73.8643492,
        "name": "dr kashyab nursing home",
        "type": "hospital"
      },
      {
        "id": 10172914049,
        "lat": 18.4705532,
        "lon": 73.8632764,
        "name": "Unnamed",
        "type": "hospital"
      },
      {
        "id": 10172925426,
        "lat": 18.5104549,
        "lon": 73.8639446,
        "name": "Bora Hospital",
        "type": "hospital"
      },
      {
        "id": 10172926367,
        "lat": 18.5152955,
        "lon": 73.8754518,
        "name": "kedari Hospital",
        "type": "hospital"
      },
      {
        "id": 10172942164,
        "lat": 18.5119365,
        "lon": 73.857759,
        "name": "Umarji Hospital",
        "type": "hospital"
      },
      {
        "id": 10172942165,
        "lat": 18.5140768,
        "lon": 73.8692464,
        "name": "Panchsheel Hospital",
        "type": "hospital"
      },
      {
        "id": 10172942167,
        "lat": 18.5027364,
        "lon": 73.8771188,
        "name": "Sardar Patel Genral Hospital",
        "type": "hospital"
      },
      {
        "id": 10172942168,
        "lat": 18.5023171,
        "lon": 73.8746937,
        "name": "Meera Hospital",
        "type": "hospital"
      },
      {
        "id": 10172942169,
        "lat": 18.5025502,
        "lon": 73.8686991,
        "name": "Allice Munot Hospital",
        "type": "hospital"
      },
      {
        "id": 10172942170,
        "lat": 18.5030034,
        "lon": 73.8681299,
        "name": "Kering Hospital",
        "type": "hospital"
      },
      {
        "id": 10172942172,
        "lat": 18.508112,
        "lon": 73.8751436,
        "name": "G.M Babubbhai Memo Hospital",
        "type": "hospital"
      },
      {
        "id": 10172942175,
        "lat": 18.4924252,
        "lon": 73.8823382,
        "name": "Military Hospital",
        "type": "hospital"
      },
      {
        "id": 10172942176,
        "lat": 18.4803326,
        "lon": 73.8610219,
        "name": "CHandralok Hospital",
        "type": "hospital"
      },
      {
        "id": 10172942177,
        "lat": 18.4757475,
        "lon": 73.857877,
        "name": "Sangam Hospital",
        "type": "hospital"
      },
      {
        "id": 10172977859,
        "lat": 18.5318931,
        "lon": 73.8472769,
        "name": "Oyster and Pearl Hospital",
        "type": "hospital"
      },
      {
        "id": 10172977865,
        "lat": 18.5172397,
        "lon": 73.8423562,
        "name": "Ghaisas ENT Hospital",
        "type": "hospital"
      },
      {
        "id": 10172977866,
        "lat": 18.5183149,
        "lon": 73.843879,
        "name": "Phadke Hospital",
        "type": "hospital"
      },
      {
        "id": 10172977868,
        "lat": 18.5177725,
        "lon": 73.864031,
        "name": "Seth Tarachand Hospital",
        "type": "hospital"
      },
      {
        "id": 10172977869,
        "lat": 18.5180497,
        "lon": 73.8658612,
        "name": "Shre Samarth Hospital",
        "type": "hospital"
      },
      {
        "id": 10172977877,
        "lat": 18.5327841,
        "lon": 73.8773654,
        "name": "Ruby Hall Clinic",
        "type": "hospital"
      },
      {
        "id": 10172977879,
        "lat": 18.5273893,
        "lon": 73.8710163,
        "name": "Red blood hospital",
        "type": "hospital"
      },
      {
        "id": 10172977880,
        "lat": 18.5278495,
        "lon": 73.8760898,
        "name": "Nityashraddha super speciality hospital",
        "type": "hospital"
      },
      {
        "id": 10172977881,
        "lat": 18.5307461,
        "lon": 73.8771922,
        "name": "N. M. Wadia Institute of Cardiology",
        "type": "hospital"
      },
      {
        "id": 10172977882,
        "lat": 18.5351432,
        "lon": 73.8765318,
        "name": "WEST VALLEY MULTISPECIALITY HOSPITAL PVT LTD",
        "type": "hospital"
      },
      {
        "id": 10172977883,
        "lat": 18.5242312,
        "lon": 73.8627099,
        "name": "Kawediya Hospital",
        "type": "hospital"
      },
      {
        "id": 10172977888,
        "lat": 18.5221641,
        "lon": 73.8676777,
        "name": "Unique Hospital",
        "type": "hospital"
      },
      {
        "id": 10172977893,
        "lat": 18.5347719,
        "lon": 73.8874441,
        "name": "Sadhu Vaswani Missions Medical Complex",
        "type": "hospital"
      },
      {
        "id": 10172986709,
        "lat": 18.510644,
        "lon": 73.8420437,
        "name": "Poona Hospital and Research Centre",
        "type": "hospital"
      },
      {
        "id": 10172986710,
        "lat": 18.5249802,
        "lon": 73.8411721,
        "name": "DEENDAYAL MEMORIAL HOSPITAL",
        "type": "hospital"
      },
      {
        "id": 10172986712,
        "lat": 18.5229428,
        "lon": 73.8620344,
        "name": "KAMLA NEHRU HOSPITAL",
        "type": "hospital"
      },
      {
        "id": 10172986714,
        "lat": 18.5012869,
        "lon": 73.8410045,
        "name": "GLOBAL HOSPITAL & RESEARCH",
        "type": "hospital"
      },
      {
        "id": 10172986715,
        "lat": 18.4949578,
        "lon": 73.8619001,
        "name": "RANKA HOSPITAL",
        "type": "hospital"
      },
      {
        "id": 10173005946,
        "lat": 18.5179034,
        "lon": 73.8422853,
        "name": "Joshi Hospital",
        "type": "hospital"
      },
      {
        "id": 10173005947,
        "lat": 18.5174841,
        "lon": 73.842789,
        "name": "Prayag Hospital",
        "type": "hospital"
      },
      {
        "id": 10173007817,
        "lat": 18.491946,
        "lon": 73.8709604,
        "name": "PUNE ADVENTIST HOSPITAL",
        "type": "hospital"
      },
      {
        "id": 10173007819,
        "lat": 18.5001316,
        "lon": 73.8543108,
        "name": "HARIJIVAN HOSPITAL",
        "type": "hospital"
      },
      {
        "id": 10219080692,
        "lat": 18.5583938,
        "lon": 73.9309874,
        "name": "hospital26",
        "type": "hospital"
      },
      {
        "id": 10219216828,
        "lat": 18.5655036,
        "lon": 73.9468456,
        "name": "Unnamed",
        "type": "hospital"
      },
      {
        "id": 10224833643,
        "lat": 18.4944973,
        "lon": 73.8135873,
        "name": "Shashwat Hospital",
        "type": "hospital"
      },
      {
        "id": 10262969902,
        "lat": 18.459162,
        "lon": 73.8254504,
        "name": "Chavan Hospital",
        "type": "hospital"
      },
      {
        "id": 10564392446,
        "lat": 18.500696,
        "lon": 73.9415815,
        "name": "Dr Mhaske Hospital and Research Centre Pvt Ltd",
        "type": "hospital"
      },
      {
        "id": 10569716766,
        "lat": 18.5875992,
        "lon": 73.8871753,
        "name": "Vaibhav Nursing Home",
        "type": "hospital"
      },
      {
        "id": 10579277150,
        "lat": 18.5984803,
        "lon": 73.7640386,
        "name": "Alpha hospital",
        "type": "hospital"
      },
      {
        "id": 10593818829,
        "lat": 18.4645854,
        "lon": 73.8906932,
        "name": "Care Hospital",
        "type": "hospital"
      },
      {
        "id": 10595648368,
        "lat": 18.5071972,
        "lon": 73.7947857,
        "name": "Unnamed",
        "type": "hospital"
      },
      {
        "id": 10679656826,
        "lat": 18.5999218,
        "lon": 73.7634297,
        "name": "Nakshatra eye hospital",
        "type": "hospital"
      },
      {
        "id": 10723431692,
        "lat": 18.5998927,
        "lon": 73.8158263,
        "name": "Dr. Satra's Dental Clinic",
        "type": "hospital"
      },
      {
        "id": 10724936330,
        "lat": 18.5985006,
        "lon": 73.8161559,
        "name": "Ashtavinayak Dental Clinic",
        "type": "hospital"
      },
      {
        "id": 10724936331,
        "lat": 18.5982284,
        "lon": 73.816064,
        "name": "Datacha Dawakhana",
        "type": "hospital"
      },
      {
        "id": 10724941692,
        "lat": 18.5954785,
        "lon": 73.8164532,
        "name": "SANJIVANI HOSPITAL",
        "type": "hospital"
      },
      {
        "id": 10724941693,
        "lat": 18.595659,
        "lon": 73.8163512,
        "name": "घनवट हॉस्पिटल",
        "type": "hospital"
      },
      {
        "id": 10724941694,
        "lat": 18.5969714,
        "lon": 73.8152038,
        "name": "Shri Hospital",
        "type": "hospital"
      },
      {
        "id": 10724999583,
        "lat": 18.5498595,
        "lon": 73.8720836,
        "name": "Unnamed",
        "type": "hospital"
      },
      {
        "id": 10727125136,
        "lat": 18.5981183,
        "lon": 73.7639672,
        "name": "Chirayu hospital",
        "type": "hospital"
      },
      {
        "id": 10743414164,
        "lat": 18.5967134,
        "lon": 73.7904165,
        "name": "ASG eye hospital",
        "type": "hospital"
      },
      {
        "id": 10755920583,
        "lat": 18.5755375,
        "lon": 73.9069211,
        "name": "White Shine Multispeciality Dental Clinic",
        "type": "hospital"
      },
      {
        "id": 11145663294,
        "lat": 18.5348935,
        "lon": 73.9448236,
        "name": "Pharmacy",
        "type": "hospital"
      },
      {
        "id": 11465918491,
        "lat": 18.5208921,
        "lon": 73.9329095,
        "name": "Racemous Polyclinics",
        "type": "hospital"
      },
      {
        "id": 11527131195,
        "lat": 18.5294468,
        "lon": 73.9364213,
        "name": "lonkar",
        "type": "hospital"
      },
      {
        "id": 11581428805,
        "lat": 18.5576766,
        "lon": 73.7712894,
        "name": "elite hospital",
        "type": "hospital"
      },
      {
        "id": 11607884417,
        "lat": 18.5233466,
        "lon": 73.9333741,
        "name": "Prism Dental and Medical Clinic",
        "type": "hospital"
      },
      {
        "id": 11690681156,
        "lat": 18.5426961,
        "lon": 73.9244404,
        "name": "Sant Hospital",
        "type": "hospital"
      },
      {
        "id": 11729850453,
        "lat": 18.5829125,
        "lon": 73.8068621,
        "name": "Construction Site",
        "type": "hospital"
      },
      {
        "id": 11786307337,
        "lat": 18.5084717,
        "lon": 73.793338,
        "name": "Capital Hospital",
        "type": "hospital"
      },
      {
        "id": 11909388851,
        "lat": 18.5376938,
        "lon": 73.8515302,
        "name": "Dr. Rajendra Mehata Hospital",
        "type": "hospital"
      },
      {
        "id": 11935053307,
        "lat": 18.5524886,
        "lon": 73.9371731,
        "name": "PMC Health Center",
        "type": "hospital"
      },
      {
        "id": 11939147052,
        "lat": 18.4692892,
        "lon": 73.8642415,
        "name": "Vighanaharata Hospital",
        "type": "hospital"
      },
      {
        "id": 11993232411,
        "lat": 18.4595051,
        "lon": 73.8233094,
        "name": "Pulse Multispeciality Hospital",
        "type": "hospital"
      },
      {
        "id": 12595620688,
        "lat": 18.5027108,
        "lon": 73.817036,
        "name": "Align Diagnostic & BoneCare Polyclinic",
        "type": "hospital"
      },
      {
        "id": 12942061149,
        "lat": 18.4643737,
        "lon": 73.8152989,
        "name": "Morya Multispeciality Hospital",
        "type": "hospital"
      },
      {
        "id": 12942088174,
        "lat": 18.563916,
        "lon": 73.9186177,
        "name": "Dr. Bhupeshkumar Kaware",
        "type": "hospital"
      },
      {
        "id": 12942222173,
        "lat": 18.5011847,
        "lon": 73.9383338,
        "name": "Abane Hospital",
        "type": "hospital"
      },
      {
        "id": 13014836263,
        "lat": 18.5958627,
        "lon": 73.7891883,
        "name": "Usha Urology & Andrology Clinic",
        "type": "hospital"
      },
      {
        "id": 13069733796,
        "lat": 18.521272,
        "lon": 73.7741764,
        "name": "Tiny Sparkles Dental Clinic | Multispeciality & Pediatric Dental Clinic",
        "type": "hospital"
      },
      {
        "id": 13332950667,
        "lat": 18.5195788,
        "lon": 73.8800262,
        "name": "City Hospital",
        "type": "hospital"
      },
      {
        "id": 13351468001,
        "lat": 18.5039723,
        "lon": 73.9297032,
        "name": "Glaze Dental Clinic - Speciality Dental Clinic and Implant Centre",
        "type": "hospital"
      },
      {
        "id": 13366468376,
        "lat": 18.5082386,
        "lon": 73.8221777,
        "name": "MyGyne Clinic",
        "type": "hospital"
      },
      {
        "id": 13380447645,
        "lat": 18.587546,
        "lon": 73.8870768,
        "name": "Unnamed",
        "type": "hospital"
      },
      {
        "id": 13431900870,
        "lat": 18.5995293,
        "lon": 73.7923998,
        "name": "Synergy Heart Institute",
        "type": "hospital"
      },
      {
        "id": 13619854841,
        "lat": 18.5536432,
        "lon": 73.8996255,
        "name": "Neneys Hospital",
        "type": "hospital"
      },
      {
        "id": 13624835600,
        "lat": 18.5536613,
        "lon": 73.8992356,
        "name": "Shree Hospital",
        "type": "hospital"
      },
      {
        "id": 13629195812,
        "lat": 18.5591805,
        "lon": 73.7924663,
        "name": "Vedika Clinic",
        "type": "hospital"
      },
      {
        "id": 13629197129,
        "lat": 18.52987,
        "lon": 73.8528722,
        "name": "Sancheti Hospital",
        "type": "hospital"
      },
      {
        "id": 106358633,
        "lat": 18.4594241,
        "lon": 73.8568236,
        "name": "Bvmfs Bharti Hospital and Research Center",
        "type": "hospital"
      },
      {
        "id": 108099341,
        "lat": 18.5455762,
        "lon": 73.8837641,
        "name": "Rajiv Gandhi Hospital",
        "type": "hospital"
      },
      {
        "id": 162972236,
        "lat": 18.5031739,
        "lon": 73.9000186,
        "name": "Inamdar Hospital",
        "type": "hospital"
      },
      {
        "id": 207872391,
        "lat": 18.5020099,
        "lon": 73.8328426,
        "name": "Deenanath Mangeshkar Hospital",
        "type": "hospital"
      },
      {
        "id": 215075307,
        "lat": 18.5202519,
        "lon": 73.8671205,
        "name": "KEM Hospital",
        "type": "hospital"
      },
      {
        "id": 217431359,
        "lat": 18.5174781,
        "lon": 73.8427841,
        "name": "Prayag Hospital",
        "type": "hospital"
      },
      {
        "id": 217431364,
        "lat": 18.51833,
        "lon": 73.8438797,
        "name": "Phadke Hospital",
        "type": "hospital"
      },
      {
        "id": 217773616,
        "lat": 18.5106347,
        "lon": 73.8419468,
        "name": "Poona Hospital and Research Centre",
        "type": "hospital"
      },
      {
        "id": 218059566,
        "lat": 18.5229409,
        "lon": 73.8621247,
        "name": "Kamla Nehru Hospital",
        "type": "hospital"
      },
      {
        "id": 218110050,
        "lat": 18.5299514,
        "lon": 73.8528812,
        "name": "Sancheti Hospital",
        "type": "hospital"
      },
      {
        "id": 218422372,
        "lat": 18.5130465,
        "lon": 73.839332,
        "name": "Sahyadri Hospital",
        "type": "hospital"
      },
      {
        "id": 218733858,
        "lat": 18.4958863,
        "lon": 73.8122815,
        "name": "Deoyani Hospital",
        "type": "hospital"
      },
      {
        "id": 218859884,
        "lat": 18.5049366,
        "lon": 73.9271433,
        "name": "Noble Hospital",
        "type": "hospital"
      },
      {
        "id": 224969009,
        "lat": 18.4854318,
        "lon": 73.9047103,
        "name": "Ruby Hall Clinic",
        "type": "hospital"
      },
      {
        "id": 229849146,
        "lat": 18.5094272,
        "lon": 73.8211666,
        "name": "Jog Hospital",
        "type": "hospital"
      },
      {
        "id": 238842686,
        "lat": 18.5249981,
        "lon": 73.8410861,
        "name": "Deendayal Memorial Hospital",
        "type": "hospital"
      },
      {
        "id": 238842692,
        "lat": 18.5319107,
        "lon": 73.8472733,
        "name": "Oyster and Pearl Hospital Tulip",
        "type": "hospital"
      },
      {
        "id": 249252730,
        "lat": 18.5170917,
        "lon": 73.8330188,
        "name": "Navalmal Firodiya Super-Speciality Hospital",
        "type": "hospital"
      },
      {
        "id": 255661295,
        "lat": 18.510153,
        "lon": 73.8371083,
        "name": "Sanjeevan Hospital, Pune",
        "type": "hospital"
      },
      {
        "id": 261258208,
        "lat": 18.5276604,
        "lon": 73.8295155,
        "name": "Ratna Memorial Hospital",
        "type": "hospital"
      },
      {
        "id": 279403631,
        "lat": 18.5036257,
        "lon": 73.8076976,
        "name": "PMC - Late. Jayabai Nanasaheb Sutar Maternity Home",
        "type": "hospital"
      },
      {
        "id": 282054948,
        "lat": 18.530254,
        "lon": 73.847541,
        "name": "Deccan Hardikar Hospital",
        "type": "hospital"
      },
      {
        "id": 290390069,
        "lat": 18.5597267,
        "lon": 73.8028513,
        "name": "Shashwat Hospital",
        "type": "hospital"
      },
      {
        "id": 331500153,
        "lat": 18.5303811,
        "lon": 73.8766572,
        "name": "Jehangir Hospital",
        "type": "hospital"
      },
      {
        "id": 355277879,
        "lat": 18.5653971,
        "lon": 73.8047303,
        "name": "Ankura Hospital",
        "type": "hospital"
      },
      {
        "id": 359537126,
        "lat": 18.5897796,
        "lon": 73.7520509,
        "name": "Helambe Hospital",
        "type": "hospital"
      },
      {
        "id": 359746914,
        "lat": 18.5725172,
        "lon": 73.8775563,
        "name": "Unnamed",
        "type": "hospital"
      },
      {
        "id": 359791453,
        "lat": 18.5317166,
        "lon": 73.9378623,
        "name": "Kodre Hospital",
        "type": "hospital"
      },
      {
        "id": 359811299,
        "lat": 18.5491881,
        "lon": 73.8923574,
        "name": "Primus Diagnostics - MRI CT-SCAN CENTRE",
        "type": "hospital"
      },
      {
        "id": 359998821,
        "lat": 18.5263062,
        "lon": 73.8519014,
        "name": "eshavari clinic",
        "type": "hospital"
      },
      {
        "id": 360237275,
        "lat": 18.4859046,
        "lon": 73.8885861,
        "name": "skincare clinic",
        "type": "hospital"
      },
      {
        "id": 360252547,
        "lat": 18.4803325,
        "lon": 73.8610232,
        "name": "Chandralok Hospital",
        "type": "hospital"
      },
      {
        "id": 360254782,
        "lat": 18.4902121,
        "lon": 73.8494687,
        "name": "Annachatre Clinic",
        "type": "hospital"
      },
      {
        "id": 360306433,
        "lat": 18.550131,
        "lon": 73.9372606,
        "name": "Gold Rush Hospital",
        "type": "hospital"
      },
      {
        "id": 360519337,
        "lat": 18.5072299,
        "lon": 73.7947784,
        "name": "Bandal complex",
        "type": "hospital"
      },
      {
        "id": 365655173,
        "lat": 18.4684452,
        "lon": 73.8189649,
        "name": "Sharad Hospital",
        "type": "hospital"
      },
      {
        "id": 380417656,
        "lat": 18.5331448,
        "lon": 73.8487703,
        "name": "Dalvi Hospital",
        "type": "hospital"
      },
      {
        "id": 380417659,
        "lat": 18.5350309,
        "lon": 73.8873783,
        "name": "Inlaks and Budhrani Hospital,Sadhu Vaswani Mission's Medical Complex",
        "type": "hospital"
      },
      {
        "id": 380417662,
        "lat": 18.5313529,
        "lon": 73.8690231,
        "name": "Naydu Rugnalay",
        "type": "hospital"
      },
      {
        "id": 652021497,
        "lat": 18.565705,
        "lon": 73.7859923,
        "name": "Jupiter Hospital",
        "type": "hospital"
      },
      {
        "id": 987620707,
        "lat": 18.5899062,
        "lon": 73.863388,
        "name": "Ruby Hospital",
        "type": "hospital"
      },
      {
        "id": 1086836322,
        "lat": 18.5872647,
        "lon": 73.7580719,
        "name": "Surya Mother and Child Care Super Speciality Hospital",
        "type": "hospital"
      },
      {
        "id": 1123876090,
        "lat": 18.5767203,
        "lon": 73.8050444,
        "name": "Unnamed",
        "type": "hospital"
      },
      {
        "id": 1206513176,
        "lat": 18.5907775,
        "lon": 73.7849492,
        "name": "Cradle maternity and women care",
        "type": "hospital"
      },
      {
        "id": 1232100918,
        "lat": 18.4956181,
        "lon": 73.8594427,
        "name": "Pandit Clinic",
        "type": "hospital"
      },
      {
        "id": 1240654815,
        "lat": 18.5295135,
        "lon": 73.9363445,
        "name": "lonkar",
        "type": "hospital"
      },
      {
        "id": 1271492108,
        "lat": 18.4625338,
        "lon": 73.7747535,
        "name": "Unnamed",
        "type": "hospital"
      },
      {
        "id": 1410470137,
        "lat": 18.5197256,
        "lon": 73.7699134,
        "name": "Chellaram Hospital",
        "type": "hospital"
      },
      {
        "id": 1410820103,
        "lat": 18.5655042,
        "lon": 73.7860137,
        "name": "Jupiter Hospital",
        "type": "hospital"
      },
      {
        "id": 1412445622,
        "lat": 18.4726519,
        "lon": 73.9239903,
        "name": "PBMA H V Desai Eye Hospital",
        "type": "hospital"
      },
      {
        "id": 1412791747,
        "lat": 18.5315759,
        "lon": 73.8758238,
        "name": "Asian Eye Hospital",
        "type": "hospital"
      }
    ],
    "schools": [
      {
        "id": 761948537,
        "lat": 18.533081,
        "lon": 73.8377434,
        "name": "Symbiosis Nursery School",
        "type": "school"
      },
      {
        "id": 1011184893,
        "lat": 18.5463629,
        "lon": 73.7838017,
        "name": "Lokseva CBSE School",
        "type": "school"
      },
      {
        "id": 1109210916,
        "lat": 18.5114263,
        "lon": 73.7949421,
        "name": "New India School",
        "type": "school"
      },
      {
        "id": 1214698509,
        "lat": 18.500656,
        "lon": 73.881898,
        "name": "Hutchings High School",
        "type": "school"
      },
      {
        "id": 1223063934,
        "lat": 18.4869487,
        "lon": 73.8816048,
        "name": "Kendriya Vidyalaya",
        "type": "school"
      },
      {
        "id": 1229054871,
        "lat": 18.5982042,
        "lon": 73.7804493,
        "name": "Wisdom World School",
        "type": "school"
      },
      {
        "id": 1232185660,
        "lat": 18.5092631,
        "lon": 73.8839949,
        "name": "Saint Mary's High School",
        "type": "school"
      },
      {
        "id": 1884439681,
        "lat": 18.5319801,
        "lon": 73.8446658,
        "name": "College of Agriculture",
        "type": "school"
      },
      {
        "id": 1998624604,
        "lat": 18.4581575,
        "lon": 73.9150286,
        "name": "The Bishop's Co-Education School",
        "type": "school"
      },
      {
        "id": 2006307223,
        "lat": 18.4772712,
        "lon": 73.9021993,
        "name": "RIMS International School and Junior College",
        "type": "school"
      },
      {
        "id": 2027727165,
        "lat": 18.48977,
        "lon": 73.8433439,
        "name": "Forever Music Pvt. Ltd / Forever Arts Academy",
        "type": "school"
      },
      {
        "id": 3376012873,
        "lat": 18.5158542,
        "lon": 73.8308867,
        "name": "Symbiosis Open School",
        "type": "school"
      },
      {
        "id": 3523422825,
        "lat": 18.57326,
        "lon": 73.7752351,
        "name": "Bharti Vidyapeeth English Medium School",
        "type": "school"
      },
      {
        "id": 3991591625,
        "lat": 18.5050361,
        "lon": 73.874985,
        "name": "Anglo Urdu Boys High School",
        "type": "school"
      },
      {
        "id": 4165722691,
        "lat": 18.5708723,
        "lon": 73.8356695,
        "name": "Unnamed",
        "type": "school"
      },
      {
        "id": 4452524320,
        "lat": 18.5036978,
        "lon": 73.8255276,
        "name": "Abhinava Vidyalaya",
        "type": "school"
      },
      {
        "id": 4452529697,
        "lat": 18.5035861,
        "lon": 73.8241285,
        "name": "Government Aided School",
        "type": "school"
      },
      {
        "id": 4520210890,
        "lat": 18.51022,
        "lon": 73.834955,
        "name": "Unnamed",
        "type": "school"
      },
      {
        "id": 4524259589,
        "lat": 18.5525375,
        "lon": 73.8258551,
        "name": "Lalit Kala Kendra",
        "type": "school"
      },
      {
        "id": 4546778694,
        "lat": 18.5519658,
        "lon": 73.8431558,
        "name": "Unnamed",
        "type": "school"
      },
      {
        "id": 4611287873,
        "lat": 18.4825852,
        "lon": 73.8151877,
        "name": "Tree House",
        "type": "school"
      },
      {
        "id": 5005629800,
        "lat": 18.5702104,
        "lon": 73.8264975,
        "name": "National School",
        "type": "school"
      },
      {
        "id": 5257379221,
        "lat": 18.5337068,
        "lon": 73.8386677,
        "name": "Unnamed",
        "type": "school"
      },
      {
        "id": 5556051146,
        "lat": 18.4852377,
        "lon": 73.8961109,
        "name": "Unnamed",
        "type": "school"
      },
      {
        "id": 5730289522,
        "lat": 18.4887544,
        "lon": 73.7925018,
        "name": "Unnamed",
        "type": "school"
      },
      {
        "id": 6113753544,
        "lat": 18.5726957,
        "lon": 73.7744004,
        "name": "Shri Mhatoba Tukaram Balwadkar Vidyalay",
        "type": "school"
      },
      {
        "id": 6457239788,
        "lat": 18.4953054,
        "lon": 73.8040865,
        "name": "Unnamed",
        "type": "school"
      },
      {
        "id": 6457253485,
        "lat": 18.5187166,
        "lon": 73.806306,
        "name": "Unnamed",
        "type": "school"
      },
      {
        "id": 6464924685,
        "lat": 18.5957995,
        "lon": 73.8018922,
        "name": "Unnamed",
        "type": "school"
      },
      {
        "id": 6466034886,
        "lat": 18.5413577,
        "lon": 73.7931307,
        "name": "Unnamed",
        "type": "school"
      },
      {
        "id": 6904343509,
        "lat": 18.5709366,
        "lon": 73.7947319,
        "name": "Unnamed",
        "type": "school"
      },
      {
        "id": 7930289885,
        "lat": 18.4582883,
        "lon": 73.8295105,
        "name": "Unnamed",
        "type": "school"
      },
      {
        "id": 7930366385,
        "lat": 18.4524549,
        "lon": 73.9117788,
        "name": "Unnamed",
        "type": "school"
      },
      {
        "id": 8904195379,
        "lat": 18.5841133,
        "lon": 73.7818519,
        "name": "Laxmibai Nandagude School",
        "type": "school"
      },
      {
        "id": 9801305163,
        "lat": 18.5399986,
        "lon": 73.783761,
        "name": "Venutai Yashwant Rao Chavan Primary School",
        "type": "school"
      },
      {
        "id": 9965869775,
        "lat": 18.5359982,
        "lon": 73.8192931,
        "name": "St. Edmund Campion Preschool",
        "type": "school"
      },
      {
        "id": 10150949587,
        "lat": 18.4883339,
        "lon": 73.791607,
        "name": "Singhgad Spring Dale School",
        "type": "school"
      },
      {
        "id": 10172584882,
        "lat": 18.5557821,
        "lon": 73.8815832,
        "name": "Agrasen High School",
        "type": "school"
      },
      {
        "id": 10172966009,
        "lat": 18.5419931,
        "lon": 73.8304653,
        "name": "Unnamed",
        "type": "school"
      },
      {
        "id": 10303754868,
        "lat": 18.5983092,
        "lon": 73.7639204,
        "name": "Robotics paathshala",
        "type": "school"
      },
      {
        "id": 10542730621,
        "lat": 18.4670403,
        "lon": 73.8908691,
        "name": "Tree House School",
        "type": "school"
      },
      {
        "id": 10560813631,
        "lat": 18.4621623,
        "lon": 73.8931703,
        "name": "Mansukhbhai Kothari National School",
        "type": "school"
      },
      {
        "id": 10564072337,
        "lat": 18.4687112,
        "lon": 73.8898538,
        "name": "Olive National School",
        "type": "school"
      },
      {
        "id": 10564938412,
        "lat": 18.5535641,
        "lon": 73.9449579,
        "name": "Nirmala Convent School",
        "type": "school"
      },
      {
        "id": 10567804468,
        "lat": 18.4645726,
        "lon": 73.890195,
        "name": "Oakridge School",
        "type": "school"
      },
      {
        "id": 10574633157,
        "lat": 18.5064329,
        "lon": 73.8028899,
        "name": "Annasaheb Patil School",
        "type": "school"
      },
      {
        "id": 10574645036,
        "lat": 18.5065954,
        "lon": 73.8030994,
        "name": "Sahyadri Internationsal School",
        "type": "school"
      },
      {
        "id": 10574649086,
        "lat": 18.5065799,
        "lon": 73.798735,
        "name": "Vasundhara Secondary School",
        "type": "school"
      },
      {
        "id": 10574663122,
        "lat": 18.4985278,
        "lon": 73.8094384,
        "name": "Athrava Ved School",
        "type": "school"
      },
      {
        "id": 10574692637,
        "lat": 18.5973477,
        "lon": 73.7639791,
        "name": "Early nest best preschool in wakad",
        "type": "school"
      },
      {
        "id": 10596055593,
        "lat": 18.5059952,
        "lon": 73.8623128,
        "name": "Noble English School",
        "type": "school"
      },
      {
        "id": 10683612075,
        "lat": 18.4713173,
        "lon": 73.8669025,
        "name": "VidyaNiketan English Medium School",
        "type": "school"
      },
      {
        "id": 10686667668,
        "lat": 18.5691131,
        "lon": 73.833515,
        "name": "Late Anantrao Pawar memorial school",
        "type": "school"
      },
      {
        "id": 10692744930,
        "lat": 18.5915288,
        "lon": 73.9267201,
        "name": "vaishnavi pre primary",
        "type": "school"
      },
      {
        "id": 10692758953,
        "lat": 18.5736399,
        "lon": 73.8843897,
        "name": "Royce international School",
        "type": "school"
      },
      {
        "id": 10692763680,
        "lat": 18.4873064,
        "lon": 73.8196892,
        "name": "Kidzee karve nagar",
        "type": "school"
      },
      {
        "id": 10692766417,
        "lat": 18.5777685,
        "lon": 73.8959348,
        "name": "st. ANTHONY SCHOOL",
        "type": "school"
      },
      {
        "id": 10692767075,
        "lat": 18.5813808,
        "lon": 73.8963823,
        "name": "RIMS international school",
        "type": "school"
      },
      {
        "id": 10692769362,
        "lat": 18.5733551,
        "lon": 73.9167695,
        "name": "air force school viman nagar",
        "type": "school"
      },
      {
        "id": 10692770226,
        "lat": 18.5928737,
        "lon": 73.9219416,
        "name": "masoom play school",
        "type": "school"
      },
      {
        "id": 10692770473,
        "lat": 18.5709819,
        "lon": 73.9021006,
        "name": "Mahatma Gandhi school ,pune",
        "type": "school"
      },
      {
        "id": 10692782228,
        "lat": 18.5899936,
        "lon": 73.9269425,
        "name": "school",
        "type": "school"
      },
      {
        "id": 10692792823,
        "lat": 18.4897544,
        "lon": 73.8202498,
        "name": "dnyanda nutan balvikas",
        "type": "school"
      },
      {
        "id": 10692810140,
        "lat": 18.4848591,
        "lon": 73.8212115,
        "name": "bharatratna dr.APJ abdul kalam e-learning school",
        "type": "school"
      },
      {
        "id": 10692810141,
        "lat": 18.4889072,
        "lon": 73.8207628,
        "name": "blue bird nursey school",
        "type": "school"
      },
      {
        "id": 10692820321,
        "lat": 18.4897341,
        "lon": 73.8203595,
        "name": "tree house play group",
        "type": "school"
      },
      {
        "id": 10724748486,
        "lat": 18.515719,
        "lon": 73.8348415,
        "name": "SHARF",
        "type": "school"
      },
      {
        "id": 10724823959,
        "lat": 18.514241,
        "lon": 73.8347069,
        "name": "Naad insitute",
        "type": "school"
      },
      {
        "id": 10724823960,
        "lat": 18.5155519,
        "lon": 73.8334982,
        "name": "little miracles",
        "type": "school"
      },
      {
        "id": 10724871527,
        "lat": 18.5153736,
        "lon": 73.8358628,
        "name": "leapbridge early childhood",
        "type": "school"
      },
      {
        "id": 10724871528,
        "lat": 18.5156144,
        "lon": 73.831166,
        "name": "symbiosis sports center and primary and secondary school",
        "type": "school"
      },
      {
        "id": 10724889771,
        "lat": 18.5179414,
        "lon": 73.8424496,
        "name": "vidya mahamandal",
        "type": "school"
      },
      {
        "id": 10724927032,
        "lat": 18.5186751,
        "lon": 73.8304092,
        "name": "kedar bhagwat music academy",
        "type": "school"
      },
      {
        "id": 10724927253,
        "lat": 18.5192589,
        "lon": 73.8453597,
        "name": "Aandra association primary school",
        "type": "school"
      },
      {
        "id": 10724934783,
        "lat": 18.5174108,
        "lon": 73.8302381,
        "name": "maharastra vidya mandal",
        "type": "school"
      },
      {
        "id": 10724940584,
        "lat": 18.5221251,
        "lon": 73.8331905,
        "name": "MP international school and junior college",
        "type": "school"
      },
      {
        "id": 10724941696,
        "lat": 18.5180488,
        "lon": 73.8419446,
        "name": "ayan businness school",
        "type": "school"
      },
      {
        "id": 10724942627,
        "lat": 18.559776,
        "lon": 73.8098708,
        "name": "indira kids",
        "type": "school"
      },
      {
        "id": 10724942844,
        "lat": 18.5158727,
        "lon": 73.8415697,
        "name": "fairyland children's center",
        "type": "school"
      },
      {
        "id": 10724949171,
        "lat": 18.5184345,
        "lon": 73.8403523,
        "name": "prasanna autism centre",
        "type": "school"
      },
      {
        "id": 10724949840,
        "lat": 18.5158493,
        "lon": 73.8310991,
        "name": "SSCD{symbiosis schools central dictorate}",
        "type": "school"
      },
      {
        "id": 10724950765,
        "lat": 18.5178349,
        "lon": 73.8449626,
        "name": "bhisma school of indic studies",
        "type": "school"
      },
      {
        "id": 10724950766,
        "lat": 18.5138313,
        "lon": 73.8405257,
        "name": "MES Sou vimlabai garware high school",
        "type": "school"
      },
      {
        "id": 10724952066,
        "lat": 18.5223094,
        "lon": 73.8331969,
        "name": "chandrakant Darode school",
        "type": "school"
      },
      {
        "id": 10724952253,
        "lat": 18.514342,
        "lon": 73.8387649,
        "name": "rajal enterprices",
        "type": "school"
      },
      {
        "id": 10724952845,
        "lat": 18.5547281,
        "lon": 73.8163909,
        "name": "Khanderao Junawane Government School",
        "type": "school"
      },
      {
        "id": 10724957170,
        "lat": 18.5553388,
        "lon": 73.8104024,
        "name": "KLAY preschool and Daycare",
        "type": "school"
      },
      {
        "id": 10724964228,
        "lat": 18.514334,
        "lon": 73.8369915,
        "name": "swatarang sangeet vidyalaya",
        "type": "school"
      },
      {
        "id": 10724970333,
        "lat": 18.5146756,
        "lon": 73.834548,
        "name": "school of culture and language",
        "type": "school"
      },
      {
        "id": 10724970491,
        "lat": 18.5644293,
        "lon": 73.8129463,
        "name": "City international school Aundh",
        "type": "school"
      },
      {
        "id": 10724973517,
        "lat": 18.5164573,
        "lon": 73.8313088,
        "name": "E-learning school pmc",
        "type": "school"
      },
      {
        "id": 10724984551,
        "lat": 18.5589754,
        "lon": 73.8032954,
        "name": "kiddis nook",
        "type": "school"
      },
      {
        "id": 10724985104,
        "lat": 18.56123,
        "lon": 73.8044716,
        "name": "spark nursery school",
        "type": "school"
      },
      {
        "id": 10724990195,
        "lat": 18.5621889,
        "lon": 73.8110242,
        "name": "Indira Gandhi school no 87B",
        "type": "school"
      },
      {
        "id": 10724992745,
        "lat": 18.5606137,
        "lon": 73.8053423,
        "name": "Mindseed Preschool and Daycare",
        "type": "school"
      },
      {
        "id": 10724993217,
        "lat": 18.5598009,
        "lon": 73.8013265,
        "name": "T.I.M.E kids aundh",
        "type": "school"
      },
      {
        "id": 10724999994,
        "lat": 18.5576567,
        "lon": 73.8028902,
        "name": "indus early learning centre aundh",
        "type": "school"
      },
      {
        "id": 10725000985,
        "lat": 18.5578687,
        "lon": 73.8041721,
        "name": "Vivero international pre school and childcare",
        "type": "school"
      },
      {
        "id": 10725002408,
        "lat": 18.5607294,
        "lon": 73.8051165,
        "name": "Kidzee",
        "type": "school"
      },
      {
        "id": 10725021533,
        "lat": 18.5614802,
        "lon": 73.8015411,
        "name": "little millenium preschool aundh",
        "type": "school"
      },
      {
        "id": 11508379407,
        "lat": 18.5792359,
        "lon": 73.8309057,
        "name": "Hutatma Bhagatsing VidyaMandir",
        "type": "school"
      },
      {
        "id": 11703326044,
        "lat": 18.537721,
        "lon": 73.7946627,
        "name": "Sahyadri international school and junior college",
        "type": "school"
      },
      {
        "id": 12176164667,
        "lat": 18.5173559,
        "lon": 73.8531214,
        "name": "Unnamed",
        "type": "school"
      },
      {
        "id": 12176173301,
        "lat": 18.4655072,
        "lon": 73.9237197,
        "name": "Delhi Public School",
        "type": "school"
      },
      {
        "id": 12533862708,
        "lat": 18.5463534,
        "lon": 73.9011169,
        "name": "Lexicon International school Kalyani Nagar",
        "type": "school"
      },
      {
        "id": 13189105124,
        "lat": 18.4542839,
        "lon": 73.9233562,
        "name": "Dhruv Global School",
        "type": "school"
      },
      {
        "id": 13380633652,
        "lat": 18.5963998,
        "lon": 73.9248726,
        "name": "ma na pa school",
        "type": "school"
      },
      {
        "id": 13390674189,
        "lat": 18.5184408,
        "lon": 73.85139,
        "name": "ahilyadevi high school",
        "type": "school"
      },
      {
        "id": 13627095124,
        "lat": 18.5916309,
        "lon": 73.9184664,
        "name": "School Ground",
        "type": "school"
      },
      {
        "id": 52755317,
        "lat": 18.5176424,
        "lon": 73.8923221,
        "name": "Army Public School",
        "type": "school"
      },
      {
        "id": 52768576,
        "lat": 18.5181021,
        "lon": 73.8862625,
        "name": "Kendriya Vidyalaya",
        "type": "school"
      },
      {
        "id": 53348758,
        "lat": 18.5874446,
        "lon": 73.8353412,
        "name": "Kendriya Vidyalaya College of Military Engineering",
        "type": "school"
      },